{"id":28,"producers":[
{"lat":48.445223,"lng":1.488925,"name":"AK VITRAIL","txt":" Maître-verrier (ou Vitrailliste)","wiki":null,"postCode":28000,"city":"Chartres","addr":"29 rue de la clouterie, ","cat":"OR","tel":"0683425899","email":"","web":"","suspect":1}
,{"lat":48.448642,"lng":1.491061,"name":"ATELIER LORIN-G. HERMET-M. JUTEAU","txt":" Maître-verrier (ou Vitrailliste)","wiki":null,"postCode":28000,"city":"Chartres","addr":"46 rue de la Tannerie, ","cat":"OR","tel":"0237340042","email":"","web":"","suspect":1}
,{"lat":48.448199,"lng":1.496342,"name":"PRENDS TES PALMES & TON TUBA","txt":" Graphiste","wiki":null,"postCode":28000,"city":"Chartres","addr":"10, avenue Texier Gallas, ","cat":"OD","tel":"0679326366","email":"sarahjarnoux@prendstespalmes.com","web":"http://www.prendstespalmes.com","suspect":0}
,{"lat":48.244964,"lng":1.220523,"name":"ATELIER DEROUBAIX","txt":" Céramiste","wiki":null,"postCode":28120,"city":"Vieuvicq","addr":"2, rue Jutigny, ","cat":"OP","tel":"0681102025","email":"deroubaix.joelle@laposte.net","web":"","suspect":1}
,{"lat":48.5904,"lng":1.568122,"name":"Odile Moulin Sculptures","txt":" Céramiste","wiki":null,"postCode":28130,"city":"Pierres","addr":"2 Place Saint Gilles, ","cat":"OP","tel":"0603030625","email":"odile.moulin@laposte.net","web":"","suspect":1}
,{"lat":48.133544,"lng":1.653912,"name":"la ferme des bleuets","txt":"La Ferme des Bleuets est spécialisée dans la production d’œufs et lentilles.","wiki":null,"postCode":28140,"city":"Courbehaye","addr":" 16 LD Villepéreux ","cat":"A","tel":"0237998617","email":"fermedesbleuets@orange.fr","web":"","suspect":1}
,{"lat":48.169145,"lng":1.666142,"name":"Lefebvre Horticulture","txt":"Horticulteur","wiki":null,"postCode":28140,"city":"Fontenay-sur-Conie","addr":"Route de Voves ","cat":"A","tel":"0625898057","email":"","web":"","suspect":0}
,{"lat":48.32627,"lng":1.786348,"name":"Fabien Varet","txt":"Maraîcher","wiki":null,"postCode":28150,"city":"Louville-la-Chenard","addr":"8 rue des Quatre Ormes 28150 Louville-laChenard","cat":"A","tel":"0658171064","email":"","web":"","suspect":0}
,{"lat":48.3328,"lng":1.654335,"name":"Atelier de mécanique d'art en horlogerie","txt":" Fabricant et restaurateur d'horloges, carillons, pendules, aiguilles, balanciers","wiki":null,"postCode":28150,"city":"Allonnes","addr":"27, rue Maurice Viollette, ","cat":"OB","tel":"0607520305","email":"boulangermarcel@wanadoo.fr","web":"http://www.horlogeriemarcelboulanger.fr","suspect":0}
,{"lat":48.197841,"lng":1.29069,"name":"espace gazon","txt":"Vente en direct de Gazon Naturel en Rouleau pour végétaliser rapidement votre jardin. Sur commande uniquement pour vous garantir la fraîcheur de notre produit.","wiki":null,"postCode":28160,"city":"Dangeau","addr":" Grissay","cat":"A","tel":"0237967272","email":"","web":"https://www.espacegazon.fr/","suspect":0}
,{"lat":48.588794,"lng":1.453111,"name":"Les Volailles de la Garenne","txt":"volaillère","wiki":null,"postCode":28170,"city":"Serazereux","addr":"La Garenne ","cat":"A","tel":"0650169493","email":"","web":"","suspect":0}
,{"lat":48.034969,"lng":1.50971,"name":"L'ATELIER D'ENNJI","txt":" Brodeur","wiki":null,"postCode":28200,"city":"Villampuy","addr":"N°39, Le Bourg, ","cat":"HD","tel":"0666940467","email":"ennji@wanadoo.fr","web":"http://www.ennji-broderiedart.com","suspect":0}
,{"lat":48.623884,"lng":1.532536,"name":"ysamea création","txt":"Créatrice d'objets et vêtements bien-être et confort dans l'esprit cocooning.","wiki":null,"postCode":28210,"city":"Nogent-le-Roi","addr":" 14 Grande rue, Vacheresses les Basses, 28210 Nogent le roi","cat":"A","tel":"0684277552","email":"ysamea@gmail.com","web":"","suspect":0}
,{"lat":48.651934,"lng":1.54513,"name":"FABRIQUE DE MEUBLES DE COULOMBS","txt":"Vernisseur finisseur","wiki":null,"postCode":28210,"city":"Coulombs","addr":"16 rue de Chandelles, ","cat":"OO","tel":"330687707431","email":"philippe.hurel@philippe-hurel.com","web":"http://www.philippe-hurel.com","suspect":0}
,{"lat":48.617807,"lng":1.677094,"name":"Atelier du Clos des Moines","txt":" Fabricant et restaurateur d'automates","wiki":null,"postCode":28230,"city":"Épernon","addr":"62 route de Boulard, 28230 Epernon","cat":"J","tel":"0688002731","email":"creation@rpcom.com","web":"http://www.rpcom.com","suspect":0}
,{"lat":48.472835,"lng":1.016405,"name":"LOÏC CHEVREAU","txt":" Couvreur : fabricant et restaurateur de toitures spéciales","wiki":null,"postCode":28240,"city":"La Loupe","addr":"rue Paul Deschanel, ","cat":"OM","tel":"0686992634","email":"","web":"","suspect":1}
,{"lat":48.852774,"lng":1.461969,"name":"SCEA DEKIEN GAILLARD","txt":"Eleveur","wiki":null,"postCode":28260,"city":"Boncourt","addr":"ROUTE D'OULINS, LA VENTROUILLERIE 28260 BONCOURT","cat":"A","tel":"0698869352","email":"","web":"","suspect":0}
,{"lat":48.14628,"lng":1.097167,"name":"GAEC DU MOUSSEAU","txt":"Agriculteur","wiki":null,"postCode":28290,"city":"Vald'Yerre","addr":"Le Mousseau 28290 Arrou","cat":"A","tel":"0625281245","email":"","web":"","suspect":0}
,{"lat":48.454228,"lng":1.471173,"name":"EARL Les jardins de Chartres","txt":"Agriculteur - Distributeur de produits alimentaires","wiki":null,"postCode":28300,"city":"Mainvilliers","addr":"Entre Mainvilliers et Seresville ","cat":"A","tel":"0237214240","email":"","web":"","suspect":0}
,{"lat":48.34474,"lng":1.842405,"name":"La Ferme de Beauce","txt":"Eleveur de volailles bio","wiki":null,"postCode":28310,"city":"Gouillons","addr":"Route de Léthuin ","cat":"A","tel":"0750433033","email":"","web":"","suspect":0}
,{"lat":48.519572,"lng":1.714862,"name":"L'Atelier du Bout d'A Haut","txt":"Tapissier d'ameublement/tapissier décorateur","wiki":null,"postCode":28320,"city":"Gallardon","addr":"33 rue du Bout d'A Haut Montlouet, ","cat":"OE","tel":"0663700915","email":"latelierduboutdahaut@gmail.com","web":"http://latelierduboutdahaut.fr","suspect":0}
,{"lat":48.207424,"lng":0.91166,"name":"la ferme des bonshommes","txt":"Eleveur","wiki":null,"postCode":28330,"city":"Authon-du-Perche","addr":" les bonshommes","cat":"AV","tel":"0237499226","email":"les-bonshommes@wanadoo.fr","web":"http://www.lesbonshommes.fr","suspect":0}
,{"lat":48.345093,"lng":1.55992,"name":"SCEA Bigot-Vovette","txt":"Producteur de légumes secs","wiki":null,"postCode":28360,"city":"Theuville","addr":"22 rue de Mathoré Vovette ","cat":"A","tel":"0237260087","email":"","web":"","suspect":0}
,{"lat":48.34249,"lng":1.42562,"name":"CLAIRE BABET VITRAUX SARL","txt":"Restaurateur de vitraux","wiki":null,"postCode":28360,"city":"La Bourdinière-Saint-Loup","addr":"17 ter rue du Château, 28360 Chenonville","cat":"OR","tel":"0237263970","email":"claire-babet@orange.fr","web":"","suspect":1}
,{"lat":48.810692,"lng":1.561408,"name":"pâtes'atras","txt":"Agriculteur et producteur de pâtes fermière semis complètes.\nDu champs à l'assiette avec le propre blé dur de l exploitation, transformé en pâtes puis séché.","wiki":null,"postCode":28410,"city":"Saint-Lubin-de-la-Haye","addr":" 10 rue du Châtelet ","cat":"AO","tel":"0671119684","email":"Patesatras@gmail.com","web":"","suspect":0}
,{"lat":48.739605,"lng":1.584214,"name":"Hautbois et bassons Cottet","txt":" Facteur et restaurateur d'instruments à vent en bois","wiki":null,"postCode":28410,"city":"Boutigny-Prouais","addr":"le Bois des Prés, ","cat":"OL","tel":"0675382687","email":"","web":"","suspect":1}
,{"lat":48.263943,"lng":0.952106,"name":"Ferme des Vitriers","txt":"Eleveur","wiki":null,"postCode":28480,"city":"Argenvilliers","addr":"Gaël CHABOCHE","cat":"A","tel":"","email":"","web":"","suspect":0}
,{"lat":48.744711,"lng":1.422156,"name":"Ferme Benoist Distribution","txt":"Agriculteur","wiki":null,"postCode":28500,"city":"Cherisy","addr":"2 rue de la régie 28500  MARSAUCEUX","cat":"A","tel":"0659949970","email":"","web":"","suspect":0}
,{"lat":48.658281,"lng":1.275294,"name":"LOU MORIN VITRAIL","txt":"Restaurateur de vitraux","wiki":null,"postCode":28500,"city":"Saulnières","addr":"1 rue de la Ferme, ","cat":"OR","tel":"0672001821","email":"","web":"http://www.lou-morin-vitrail.com","suspect":1}
,{"lat":48.43543,"lng":1.526993,"name":"exquis punch","txt":"À base de rhum, de fruits Premium,  et d'épices qui viennent sublimer le tout, EXQUIS est la nouvelle star de l'apéro. Fraîcheur, douceur, saveur, le tout y 'est afin de vous faire passer un excellent moment , direction les tropiques. Confectionnée prêt de Chartres en Eure et Loir (28) notre production reste artisanale.","wiki":null,"postCode":28630,"city":"Gellainville","addr":" 20 Av. Gustave Eiffel, 28630 Gellainville","cat":"AO","tel":"0781907361","email":"contact@exquispunch.com","web":"https://exquispunch.com/","suspect":0}
,{"lat":48.378086,"lng":1.443684,"name":"STEPHANE PETIT","txt":"Verrier","wiki":null,"postCode":28630,"city":"Thivars","addr":"47, rue de Spoir, ","cat":"OR","tel":"0607451245","email":"stephanepetit@lagalerieartway.eu","web":"","suspect":1}
,{"lat":48.448915,"lng":1.686745,"name":"VOLTAIRE AND CO","txt":" Tapissier d'ameublement/tapissier décorateur","wiki":null,"postCode":28700,"city":"Béville-le-Comte","addr":"5 RUE DU BOIS BLANC LE LUET, ","cat":"OE","tel":"0684051566","email":"contact@voltaireandco.fr","web":"http://www.voltaireandco-tapissier.fr","suspect":0}
,{"lat":48.172846,"lng":1.410841,"name":"Microbrasserie du Glandin","txt":"Agriculteur/ Brasseur","wiki":null,"postCode":28800,"city":"Bonneval","addr":"Le Glandin ","cat":"A","tel":"0632364756","email":"","web":"","suspect":0}
,{"lat":48.190094,"lng":1.574543,"name":"EARL LAVO","txt":"AGRICULTEUR","wiki":null,"postCode":28800,"city":"Sancheville","addr":"adresse non fournie 28800 SANCHEVILLE","cat":"A","tel":"0237440153","email":"","web":"","suspect":0}
]}