{"id":5,"producers":[
{"lat":44.869506,"lng":6.718329,"name":"Charles Maillet","web":"","txt":"Eleveur","wiki":null,"tel":"0685307930","postCode":5100,"city":"Cervières","addr":"59 Le Chef Lieu ","cat":"AV","email":""}
,{"lat":44.417963,"lng":5.966691,"name":"herbiolys laboratoire","web":"http://www.herbiolys.fr/","txt":"Herbiolys commercialise des cosmétiques naturels (huiles bien-être, savons).","wiki":null,"tel":"0492446171","postCode":5110,"city":"Lardier-et-Valença","addr":" Le Clos des Passerelles Plan de Lardier ","cat":"P","email":""}
,{"lat":44.488284,"lng":6.127308,"name":"mes jus de fruits","web":"","txt":"Agriculteur","wiki":null,"tel":"0492543004","postCode":5130,"city":"Valserres","addr":"Rue de l'Eglise ","cat":"AM","email":""}
,{"lat":44.505216,"lng":6.084121,"name":"la ferme de louise","web":"http://www.Lafermedelouise.eu","txt":"Productrice, distillatrice et transformation de plantes aromatiques et médicinales. \nCosmétiques : huiles essentielles, hydrolats, lotions, baumes …","wiki":null,"tel":"0611314797","postCode":5130,"city":"Jarjayes","addr":" Les sayons ","cat":"P","email":"Lafermedelouise05@gmail.com"}
,{"lat":44.504045,"lng":6.112272,"name":"Un Air d'Ailleurs","web":"","txt":"Maraîchage et yourtes à la ferme","wiki":null,"tel":"0689899248","postCode":5130,"city":"Jarjayes","addr":"La Tour ","cat":"AM","email":""}
,{"lat":44.683203,"lng":6.312148,"name":"les ruches d'orcières","web":"","txt":"Vente de Miel en pots de 250 gr et 500gr sur la commune d'orcières\n\nJe propose different Miel:\n\n- Miel de lavande\n- Miel de Montagne\n- Miel cremeux\n\nMerci de me contacter au 0672154873","wiki":null,"tel":"0672154873","postCode":5170,"city":"Orcières","addr":" Bousensayes ","cat":"AA","email":"loicgiraud@hotmail.fr"}
,{"lat":44.574264,"lng":6.50355,"name":"fruit des abeilles","web":"","txt":"Production Miel et produits dérivés ( Bougies,Pollen,Savons...)","wiki":null,"tel":"","postCode":5200,"city":"Embrun","addr":" \"le vieux chalet\" 38 Route de chalvet ","cat":"AA","email":"mathieu_picavet@hotmail.com"}
,{"lat":44.548132,"lng":6.488981,"name":"bio-jardin","web":"","txt":"Bio-Jardin est une exploitation agricole qui propose fruits et légumes.","wiki":null,"tel":"0492431297","postCode":5200,"city":"Embrun","addr":" Le Liou R.N. 94 - Baratier ","cat":"AM","email":""}
,{"lat":44.535421,"lng":6.315815,"name":"GAEC Les Lilas","web":"","txt":"Agriculteur éleveur","wiki":null,"tel":"0616964734","postCode":5230,"city":"Chorges","addr":"Les Olliviers ","cat":"AV","email":""}
,{"lat":44.671283,"lng":6.238614,"name":"gayral","web":"http://www.argousier-bouleau.com","txt":"Producteur de jus d'argousier, de sève de bouleau, de jus de fruits, de liqueurs, de cosmétiques et distillateur de plantes.","wiki":null,"tel":"0492559356","postCode":5260,"city":"Saint-Jean-Saint-Nicolas","addr":" Pont du Fossé 0","cat":"AF","email":"sarl-gayral@orange.fr"}
,{"lat":44.343654,"lng":5.769246,"name":"catherine et robert blanc","web":"","txt":"L'exploitation agricole de Lagrand produit des fruits, des jus de fruits et des légumes variés (légumes à cosse secs, à cosse verts, à fruits, feuilles-tiges, racines-bulbes).","wiki":null,"tel":"0492543004","postCode":5300,"city":"Garde-Colombe","addr":" 3 allée des Framboisiers 05300 Lagrand ","cat":"AM","email":"blanc.jusderaisin@free.fr"}
,{"lat":44.841763,"lng":6.477005,"name":"les mille verts","web":"","txt":"Les Milles Verts ont pour activités l'arboriculture et l’horticulture maraichère.","wiki":null,"tel":"0676320617","postCode":5340,"city":"Vallouise-Pelvoux","addr":" Le Villard 05290 Vallouise ","cat":"AMF","email":""}
,{"lat":44.544484,"lng":5.956606,"name":"agriculteurs vente directe à la ferme viande bovine","web":"","txt":"agriculteur","wiki":null,"tel":"0660069394","postCode":5400,"city":"Manteyer","addr":"Les allemands ferme jean de florette 05400 manteyer","cat":"AV","email":""}
,{"lat":44.564297,"lng":6.002946,"name":"miellerie de la haute correo","web":"","txt":"Miellerie de la Haute Correo a pour activité l'apiculture, l'horticulture maraichère et la fabrication de compotes, confitures et savons.","wiki":null,"tel":"0492438211","postCode":5400,"city":"La Roche-des-Arnauds","addr":" Route de Rabou D503 ","cat":"AA","email":""}
,{"lat":44.7747,"lng":6.953637,"name":"La chevrerie de Sasha et compagnie","web":"","txt":"Producteur de fromage de chèvre fermier","wiki":null,"tel":"0766309734","postCode":5460,"city":"Abriès-Ristolas","addr":"La monta 05460 Abries-ristolas","cat":"AF","email":""}
,{"lat":44.329036,"lng":5.682721,"name":"Spiruline d'Orpierre","web":"","txt":"Culture phytoplanctonique","wiki":null,"tel":"0642613989","postCode":5700,"city":"Orpierre","addr":"Les Parayes Côté Montagne ","cat":"AO","email":""}
]}