{"id":19,"producers":[
{"lat":45.269379,"lng":1.769345,"name":"L'ATELIER DU CUIR","txt":"Sellier","wiki":null,"postCode":19000,"city":"Tulle","addr":"55, avenue Charles de Gaulle, ","cat":"OT","tel":"0555203447","email":"bruchon.didier@free.fr","web":"","suspect":1}
,{"lat":45.247926,"lng":1.746709,"name":"MAUGEIN","txt":" Facteur et restaurateur d'accordéons","wiki":null,"postCode":19000,"city":"Tulle","addr":"Route de Brive, ","cat":"OL","tel":"0672152533","email":"accordeons.maugein@wanadoo.fr","web":"http://www.accordeons-maugein.com","suspect":0}
,{"lat":45.140318,"lng":1.548443,"name":"LAMELLUX","txt":"Marqueteur","wiki":null,"postCode":19100,"city":"Brive-la-Gaillarde","addr":"Chemin des Vignes Blanches Quartier Le Rocher Coupé, 19100 Brive","cat":"OO","tel":"0555241261","email":"com@lamellux.com","web":"http://www.lamellux.com","suspect":0}
,{"lat":45.14675,"lng":1.488046,"name":"Le Pré d’à Côté","txt":"Produits : Rayon bio, Fruits, Légumes, Poissons, Viandes, Traiteur et charcuterie, Volaille et lapin, Fromages, Oeufs et produits laitiers, Pain et patisseries, Miels et confitures, Huiles et vinaigres, Épicerie, Vins et alcools, Jus et sirops","wiki":null,"postCode":19100,"city":"Brive-la-Gaillarde","addr":"Impasse de la Sarretie ","cat":"AG","tel":"0555224324","email":"","web":"","suspect":1}
,{"lat":45.4937,"lng":2.499169,"name":"ART ET TRADITION DU CHAUME","txt":"Couvreur : fabricant et restaurateur de toitures spéciales","wiki":null,"postCode":19110,"city":"Monestier-Port-Dieu","addr":"Le Bourg, 19110 Monestier Port Dieu","cat":"OM","tel":"0683255270","email":"info@chaumier.com","web":"http://www.chaumier.com","suspect":0}
,{"lat":44.997155,"lng":1.799679,"name":"djemel et laurence kasmi","txt":"L'exploitation agricole de Sioniac cultive des fruits et légumes et confectionne des produits dérivés.","wiki":null,"postCode":19120,"city":"Sioniac","addr":" Carbonnet","cat":"AM","tel":"0555911180","email":"","web":"","suspect":0}
,{"lat":44.935119,"lng":1.809095,"name":"ATELIER BERTRAND CATTIAUX","txt":" Facteur et restaurateur d'orgues","wiki":null,"postCode":19120,"city":"Liourdres","addr":"La Vidalie Haute, ","cat":"OL","tel":"0555912828","email":"orgues.cattiaux@orange.fr","web":"http://www.orguescattiaux.org","suspect":0}
,{"lat":45.292595,"lng":1.436087,"name":"OLIVIER JULIA","txt":"Sculpteur sur métal","wiki":null,"postCode":19130,"city":"Voutezac","addr":"CEYRAT, 19130 VOUTEZAC","cat":"OE","tel":"0648470961","email":"olivierjulia@wanadoo.fr","web":"http://www.elfic-dream.com","suspect":0}
,{"lat":45.393163,"lng":1.584528,"name":"ATELIER ESMOINGT DANIEL","txt":"Sculpteur sur pierre","wiki":null,"postCode":19140,"city":"Espartignac","addr":"La Bleynie, ","cat":"OZ","tel":"0608607292","email":"esmoingtdaniel@orange.fr","web":"","suspect":0}
,{"lat":45.426733,"lng":1.56816,"name":"POTERIE DU DOUSTRE","txt":"Potier de grès","wiki":null,"postCode":19140,"city":"Uzerche","addr":"29, rue du pont turgot, ","cat":"OP","tel":"0555988075","email":"mannicklepetit@hotmail.fr","web":"","suspect":1}
,{"lat":45.443264,"lng":1.524403,"name":"YBARTIST","txt":" Ebéniste","wiki":null,"postCode":19140,"city":"Saint-Ybard","addr":"Chauffour, 19140 Saint Ybard","cat":"OO","tel":"0673499743","email":"colombel.jl@sfr.fr","web":"","suspect":0}
,{"lat":45.17943,"lng":1.688234,"name":"BILLARDS FRANK PAQUET","txt":" Ebéniste","wiki":null,"postCode":19190,"city":"Aubazines","addr":"Rochesseux, 19190 Aubazine","cat":"OO","tel":"0555257789","email":"","web":"","suspect":1}
,{"lat":45.425432,"lng":1.301911,"name":"SCEA la vagabonde","txt":"Pisciculture la vagabonde,\nÉlevage et vente de : truite arc en ciel, truite fario, omble de fontaine.\nPèche à la truite (demi journée ou pêche rapide au kg)","wiki":null,"postCode":19230,"city":"Ségur-le-Château","addr":" le champ cordonnier","cat":"AP","tel":"055573383","email":"pisciculturelavagabonde@gmail.com","web":"","suspect":1}
,{"lat":45.440566,"lng":1.309172,"name":"laboratoire paysanne","txt":"Le Laboratoire Paysanne propose des produits laitiers et cosmétiques biologiques issue du lait d’ânesse et fabriqué selon la méthode de saponification à froid.","wiki":null,"postCode":19230,"city":"Ségur-le-Château","addr":" La Combes","cat":"AF","tel":"0555972918","email":"paysane@cosmetiques-au-lait-danesse.com","web":"http://www.cosmetiques-au-lait-danesse.com/","suspect":0}
,{"lat":45.280052,"lng":1.501939,"name":"le verger du pré de sagne","txt":"Vente de fruits, cidres, vinaigres de cidre et jus de pommes.","wiki":null,"postCode":19240,"city":"Allassac","addr":" Pradel","cat":"AB","tel":"0555843924","email":"contact@predesagne.com","web":"http://www.predesagne.com/","suspect":0}
,{"lat":45.46594,"lng":2.162538,"name":"CHÉRI BIBI","txt":" Chapelier - Modiste","wiki":null,"postCode":19250,"city":"Combressol","addr":"Le Bourg, 19250 COMBRESSOL","cat":"HC","tel":"0680360704","email":"marie-claire-cheribibi@wanadoo.fr","web":"http://www.cheribibi.fr","suspect":0}
,{"lat":45.506393,"lng":1.836704,"name":"la ferme des vergers de veix","txt":"Producteur de myrtilles et petits fruits bio\nMaraicher bio \nProducteur de viande de boeuf Galloway bio","wiki":null,"postCode":19260,"city":"Veix","addr":" Chez Juillac","cat":"AV","tel":"0684516459","email":"","web":"","suspect":1}
,{"lat":45.229707,"lng":1.563673,"name":"Facteur d'instruments à vent","txt":" Facteur et restaurateur d'instruments à vent en bois","wiki":null,"postCode":19270,"city":"Sainte-Féréole","addr":"4, Lauvinerie, 19270 SAINTE-FEREOLE","cat":"OL","tel":"0555857413","email":"contact@flutesbaroques.com","web":"http://www.flutesbaroques.com","suspect":0}
,{"lat":45.436336,"lng":2.065371,"name":"le jardin turbulent","txt":"Pépinière d'arbres et d'arbustes fruitiers en racines nues, variétés anciennes, rustiques et locales, adaptée à la culture en montagne. Vente en ligne et sur place.","wiki":null,"postCode":19300,"city":"Soudeilles","addr":" Le Theil","cat":"A","tel":"0684079895","email":"lejardinturbulent@gmail.com","web":"https://lejardinturbulent.com","suspect":0}
,{"lat":45.4263,"lng":1.981025,"name":"le verger de la guillaume","txt":"Le Verger de la Guillaume est une exploitation de myrtilles et produits dérivés.","wiki":null,"postCode":19300,"city":"Saint-Yrieix-le-Déjalat","addr":" Les Chaussades","cat":"A","tel":"0555932172","email":"nadphi@orange.fr","web":"http://verger.laguillaumie.free.fr/","suspect":0}
,{"lat":45.246935,"lng":1.327266,"name":"LA BOISSIÈRE","txt":"Potier raku","wiki":null,"postCode":19310,"city":"Ayen","addr":"Rue de la Boissière, 19310 AYEN","cat":"OP","tel":"0555251569","email":"laboissiere@wanadoo.fr","web":"","suspect":0}
,{"lat":45.242719,"lng":1.290118,"name":"LA PIERRE A VOTRE IDÉE","txt":" Fontainier","wiki":null,"postCode":19310,"city":"Louignac","addr":"Pinsac, ","cat":"OZ","tel":"0648399174","email":"lesjardinsdelouignac@hotmail.fr","web":"","suspect":0}
,{"lat":45.195383,"lng":1.624328,"name":"Cadres et Poésies","txt":" Encadreur","wiki":null,"postCode":19360,"city":"Malemort","addr":"6 rue du Lavoir, 19360 Venarsal","cat":"OO","tel":"0680677755","email":"valerie.majoreill759@orange.fr","web":"http://www.cadresetpoesies.com","suspect":0}
,{"lat":45.119907,"lng":1.589898,"name":"LAVEAUX","txt":"Tuilier","wiki":null,"postCode":19360,"city":"Cosnac","addr":"La Vedrenne Haute, 19360 COSNAC","cat":"OM","tel":"0680039006","email":"henri.laveaux@wanadoo.fr","web":"","suspect":0}
,{"lat":45.438359,"lng":1.835285,"name":"jean maison","txt":"Producteur spécialisé dans l'aviculture, l'horticulture maraîchère et ses produits dérivés.","wiki":null,"postCode":19390,"city":"Saint-Augustin","addr":" Bourg","cat":"AM","tel":"0555212607","email":"","web":"http://www.comptoirdherboristerie.com/","suspect":0}
,{"lat":45.029412,"lng":2.095449,"name":"douceurs de la xaintrie","txt":"La ferme Douceurs de la Xaintrie cultive des fruits et légumes qu'elle transforment en produits dérivés (gelées, sirops,...).","wiki":null,"postCode":19430,"city":"Goulles","addr":" Lacamp","cat":"AM","tel":"0555289141","email":"","web":"","suspect":1}
,{"lat":45.504068,"lng":1.538837,"name":"ARTISAN ÉBÉNISTE RESTAURATEUR DE MEUBLES","txt":"Vernisseur au tampon ","wiki":null,"postCode":19510,"city":"Salon-la-Tour","addr":"4, rue Monte à Regret, ","cat":"OO","tel":"0614432343","email":"peyresaubesguillaume@wanadoo.fr","web":"","suspect":0}
,{"lat":45.15814,"lng":1.28607,"name":"les délices du gaulois","txt":"Élevage de porc en plein air \nVente direct à la ferme \nProduits sans colorant ni conservateur\nVisite de la ferme","wiki":null,"postCode":19520,"city":"Cublac","addr":" La rivière rt de loubignac 19520 ","cat":"AV","tel":"0627674514","email":"lesdelicesdugaulois@gmail.com","web":"","suspect":0}
,{"lat":45.139331,"lng":1.311124,"name":"ATELIER BOISSERIE MIREILLE","txt":"Sculpteur sur métal","wiki":null,"postCode":19520,"city":"Cublac","addr":"40, Marc Chadourne, 19520 CUBLAC","cat":"OE","tel":"0553500174","email":"","web":"","suspect":1}
,{"lat":45.227777,"lng":1.650408,"name":"MES CHAPEAUX ET MOI","txt":" Chapelier - Modiste","wiki":null,"postCode":19560,"city":"Saint-Hilaire-Peyroux","addr":"Le Tranchat, 19560 Saint Hilaire Peyroux","cat":"HC","tel":"0684124342","email":"brigitte@meschapeauxetmoi.com","web":"","suspect":1}
,{"lat":45.131034,"lng":1.401715,"name":"LES MEUBLES PROVINCIAUX","txt":"Laqueur","wiki":null,"postCode":19600,"city":"Saint-Pantaléon-de-Larche","addr":"La Belotte, 19600 ST PANTALEON DE LARCHE","cat":"OO","tel":"0555851212","email":"","web":"","suspect":1}
,{"lat":45.340984,"lng":1.712052,"name":"PAPETERIE ARTISANALE J-P GOUY","txt":" Fabricant de papier","wiki":null,"postCode":19700,"city":"Saint-Clément","addr":"Les Bordes Maison de l'Imprimerie et du Papier, ","cat":"OD","tel":"0555231802","email":"jpg@lespapiersdumoulin.com","web":"http://lespapiersdumoulin.com","suspect":0}
]}