{"id":41,"producers":[
{"lat":47.562439,"lng":1.28606,"name":"cobeia","web":"https://www.cobeia.com/","txt":"Cobeia est une plateforme sociale pour mettre en relation les agriculteurs et les artisans de la France entière avec les consommateurs et ainsi valoriser les productions locales et les circuits courts. \n\nChaque producteur a son stand sur Cobeia, comme si vous étiez au marché ! Chaque stand est indépendant et vous êtes en relation directe avec le producteur, en profitant d'un paiement sécurisé en ligne.\n\nTrouvez facilement les agriculteurs et artisans référencés sur la plateforme. Toutes les informations à portée de main ! Comment commander, mode de production.\n\nVous pouvez également communiquer directement avec les producteurs ou les autres utilisateurs. Suivez vos producteurs favoris pour être notifié automatiquement de leurs actualités.\n\n - En plus, la plateforme regroupe tous les outils dont les producteurs ont besoin pour vendre en direct à ses clients, gestion de stocks, outil communication, gestion de points de vente. \n \nL'idée est de faciliter  les échanges avec le consommateur et de mettre en avant vo","wiki":null,"tel":"0627282628","postCode":41000,"city":"Blois","addr":" 53 RUE DE L AMIRAL QUERVILLE 41000 BLOIS","cat":"A","email":"support@cobeia.com"}
,{"lat":47.870805,"lng":1.001226,"name":"ferme du petit pont","web":"","txt":"La Ferme du Petit Pont cultive des fruits et légumes et fabrique des produits laitiers issue du lait de chèvre.","wiki":null,"tel":"0606891789","postCode":41100,"city":"Azé","addr":" La Ferme du Petit Pont","cat":"AM","email":""}
,{"lat":47.319731,"lng":1.291785,"name":"Jardin des Grands Raies","web":"","txt":"","wiki":null,"tel":"0254710061","postCode":41110,"city":"Pouillé","addr":"5 allée des Fleurins ","cat":"A","email":""}
,{"lat":47.460921,"lng":1.278124,"name":"ferme de la guibaldière","web":"http://www.fermedelaguilbardiere.fr/","txt":"Vente de viandes bovines, porcines et produits laitiers.","wiki":null,"tel":"0254440170","postCode":41120,"city":"Monthou-sur-Bièvre","addr":" La Guilbardière ","cat":"AV","email":"contact@fermedelaguilbardiere.fr"}
,{"lat":47.336663,"lng":1.447195,"name":"la chotardière 41","web":"","txt":"Bonjour, je viens de reprendre l’exploitation de Joël Chaplault. Nous vendons sur la ferme du poulets, de la pintades prêts à la consommation, de la rillettes et des poulettes prêtes à pondre.","wiki":null,"tel":"0670861316","postCode":41140,"city":"Méhers","addr":" 3 route de la Chotardière ","cat":"AV","email":"lachotardiere41@hotmail.com"}
,{"lat":47.359831,"lng":1.754859,"name":"la petite jardinerie","web":"https://www.lapetitejardinerie.com/","txt":"Producteur et primeurs en fruits et légumes à Romorantin Lanthenay (41), La Petite Jardinerie propose des fruits et légumes de saison en vente directe.","wiki":null,"tel":"0681131233","postCode":41200,"city":"Romorantin-Lanthenay","addr":" 6-8 rue de la Lambinière ","cat":"AM","email":""}
,{"lat":47.415469,"lng":1.530534,"name":"les cailloux du paradis","web":"http://vinscourtois.free.fr/","txt":"Les Cailloux du Paradis est une exploitation viticole biologique.","wiki":null,"tel":"0254987197","postCode":41230,"city":"Soings-en-Sologne","addr":" Le Paradis les Cailloux","cat":"AB","email":""}
,{"lat":47.496364,"lng":1.670446,"name":"","web":"","txt":"","wiki":null,"tel":"0667393274","postCode":41230,"city":"Vernou-en-Sologne","addr":"Solferino 41230 Vernou-en-Soolgne","cat":"A","email":""}
,{"lat":48.016113,"lng":1.003516,"name":"La Bignorie","web":"","txt":"","wiki":null,"tel":"0662316154","postCode":41270,"city":"Boursay","addr":"Les Billonneries ","cat":"A","email":""}
,{"lat":47.986365,"lng":1.037699,"name":"Le Safran de la Chapelle-Vicomtesse","web":"","txt":"","wiki":null,"tel":"0254805296","postCode":41270,"city":"La Chapelle-Vicomtesse","addr":"1 route de Vendôme ","cat":"A","email":""}
,{"lat":47.699233,"lng":1.295993,"name":"ferme des petits tresseaux","web":"http://www.lespetitstresseaux.fr","txt":"PORTES OUVERTES LE SAMEDI 12 SEPTEMBRE A PARTIR DE 14H.\nRenseignement et inscriptions sur www.lespetitstresseaux.fr\n\nIdéalement situés au cœur de la Vallée de la Cisse, nous élevons des bovins Highlands, des volailles, des agneaux Bleu du Maine, ainsi que des porcs Bayeux.\nDans une recherche de qualité, nous veillons à notre autonomie décisionnelle. Ainsi, nous gérons nos élevages de la production des aliments, jusqu’à la commercialisation de nos produits.","wiki":null,"tel":"0254201635","postCode":41330,"city":"Averdon","addr":" Les Petits Tresseaux","cat":"AV","email":"lespetitstresseaux@gmail.com"}
,{"lat":47.63337,"lng":1.282342,"name":"EARL de la ferme neuve","web":"","txt":"","wiki":null,"tel":"0675910408","postCode":41330,"city":"Fossé","addr":"7 rue des noyers 41330 Fosse","cat":"A","email":""}
,{"lat":47.793942,"lng":0.902261,"name":"ferme des trois buissons","web":"","txt":"La Ferme des Trois Buissons propose du pain, de l'huile alimentaire, de la farine (blé, seigle, sarrasin, son et épeautre), de la viandes, du jus de pommes et des lentilles.","wiki":null,"tel":"0254720217","postCode":41360,"city":"Lunay","addr":" Les Trois Buissons","cat":"AV","email":""}
,{"lat":47.767708,"lng":1.440846,"name":"Ferme de la Motte","web":"","txt":"","wiki":null,"tel":"0254814422","postCode":41370,"city":"Talcy","addr":"52 rue du Château ","cat":"A","email":""}
,{"lat":47.606165,"lng":2.027549,"name":"astérale","web":"http://www.asterale.com/","txt":"Astérale est une société française spécialisée dans la production, la commercialisation et la promotion des huiles essentielles, eaux florales et épices de Madagascar.","wiki":null,"tel":"0254830135","postCode":41600,"city":"Lamotte-Beuvron","addr":" 21 rue de Beauce","cat":"AO","email":"contact@asterale.com"}
,{"lat":47.43441,"lng":1.444974,"name":"la p'tite chipeuse","web":"https://www.laptitechipeuse.com","txt":"Producteur local dans la région de Contres, nous fabriquons des mini moelleux et sablés, pâte à tartiner et sirops. Fabriqué avec des ingrédients locaux et bio","wiki":null,"tel":"0760742606","postCode":41700,"city":"Le Controis-en-Sologne","addr":" 17 rue des entrepreneurs 41700 Contres ","cat":"A","email":"laptitechipeuse@gmail.com"}
,{"lat":47.39414,"lng":1.356402,"name":"Domaine OCTAVIE","web":"","txt":"","wiki":null,"tel":"0254795457","postCode":41700,"city":"Oisly","addr":"7 Route de Marcé ","cat":"A","email":""}
]}