{"id":56,"producers":[
{"lat":47.673596,"lng":-2.76475,"name":"Ferme de l'Arche","txt":"Eleveur","wiki":null,"postCode":56000,"city":"Vannes","addr":"Sonia VAN ISACKER","cat":"A","tel":"","email":"","web":"","suspect":0}
,{"lat":47.635205,"lng":-2.780603,"name":"ART, SCULPTURE, FRESQUE, DECOR ET FORMATION, JOËL STRILL SCULPTEUR","txt":"Modeleur-Mouleur","wiki":null,"postCode":56000,"city":"Vannes","addr":"18 bis, impasse du Petit Conleau, ","cat":"OE","tel":"0297460548","email":"contact@strill.fr","web":"https://sculpteurstrill.com","suspect":0}
,{"lat":47.678076,"lng":-2.761744,"name":"ATELIER TERRE LIBRE","txt":"Tourneur céramique","wiki":null,"postCode":56000,"city":"Vannes","addr":"134, avenue du 4 août 1944, 56000 VANNES","cat":"OP","tel":"0297540512","email":"","web":"http://atelier.terre.libre.free.fr","suspect":1}
,{"lat":47.659801,"lng":-2.785366,"name":"Le Panier Campagnard","txt":"","wiki":null,"postCode":56000,"city":"Vannes","addr":"81 Avenue de la Marne ","cat":"AG","tel":"0297405142","email":"","web":"http://www.le-panier-campagnard.com/","suspect":0}
,{"lat":47.684006,"lng":-2.76843,"name":"Les Producteurs du coin","txt":"Produits : Rayon bio, Fruits, Légumes, Viandes, Volaille et lapin, Fromages, Oeufs et produits laitiers, Pain et patisseries, Miels et confitures, Huiles et vinaigres, Épicerie, Vins et alcools, Jus et sirops","wiki":null,"postCode":56000,"city":"Vannes","addr":"4 ter Allée du Dolmen ","cat":"AG","tel":"0658364100","email":"","web":"","suspect":0}
,{"lat":48.115467,"lng":-3.716563,"name":"La Jumenterie des Crinières Blanches","txt":"agricultrice eleveuse équin","wiki":null,"postCode":56110,"city":"Roudouallec","addr":"lieu dit KENERDU 56110 ROUDOUALLEC","cat":"AF","tel":"0611354142","email":"","web":"","suspect":0}
,{"lat":48.117768,"lng":-3.625734,"name":"ATELIER VITREA\n","txt":"Restaurateur de vitraux","wiki":null,"postCode":56110,"city":"Gourin","addr":"Lann goastalou, ","cat":"OR","tel":"0632940170","email":"","web":"","suspect":1}
,{"lat":47.955168,"lng":-2.547476,"name":"ESPACE ZEN","txt":" Sculpteur statuaire","wiki":null,"postCode":56120,"city":"Josselin","addr":"6 rue Georges le Berd, ","cat":"OZ","tel":"0628014708","email":"thouzeau2000@yahoo.fr","web":"","suspect":0}
,{"lat":47.504284,"lng":-2.321716,"name":"le pain de sophie","txt":"Fabrication artisanale de pains bio au levain naturel et cuits au feu de bois. Toutes les matières premières sont issues de l'agriculture biologique","wiki":null,"postCode":56130,"city":"Férel","addr":" Lizerbignac","cat":"AC","tel":"","email":"lepaindesophie@laposte.net","web":"","suspect":0}
,{"lat":47.517715,"lng":-2.302665,"name":"ATELIER DE CONSERVATION RESTAURATION D'OEUVRES PEINTES RUEL & KIRIAKI","txt":" Restaurateur de tableaux","wiki":null,"postCode":56130,"city":"La Roche-Bernard","addr":"6 route de Guérande, 56130 LA ROCHE-BERNARD","cat":"OD","tel":"0643379118","email":"","web":"","suspect":1}
,{"lat":47.499179,"lng":-2.348512,"name":"Horlogerie & Créations","txt":"Restaurateurs de montres de collection","wiki":null,"postCode":56130,"city":"Férel","addr":"53 Treguet, 56130 Ferel","cat":"OB","tel":"0789247693","email":"lefrancois.simon@yahoo.com","web":"","suspect":1}
,{"lat":47.782601,"lng":-2.425136,"name":"Ferme de la Ville Aly","txt":"Eleveur","wiki":null,"postCode":56140,"city":"Bohal","addr":"La Ville Aly ","cat":"AV","tel":"0297733359","email":"","web":"","suspect":0}
,{"lat":47.897597,"lng":-3.009319,"name":"Le Verger de Baud","txt":"Arboriculteur","wiki":null,"postCode":56150,"city":"Baud","addr":"ZI Le Dresseve ","cat":"AM","tel":"0618058304","email":"","web":"","suspect":0}
,{"lat":48.061199,"lng":-3.294562,"name":"gaec de namohic (kerourin)","txt":"Héloïse et Cyril ont repris la ferme de Kerourin (qui existe depuis 2005)","wiki":null,"postCode":56160,"city":"Ploërdut","addr":" Kerourin","cat":"A","tel":"0618186915","email":"gaecdenamohic@gmail.com","web":"https://www.facebook.com/GaecdeNamohic/","suspect":0}
,{"lat":48.062523,"lng":-3.314635,"name":"la malvoisine","txt":"Alain Réty est installé depuis 2019 au hameau Malvoisin","wiki":null,"postCode":56160,"city":"Ploërdut","addr":" Malvoisin","cat":"A","tel":"0781659038","email":"cidrerie@la-malvoisine.fr","web":"https://la-malvoisine.fr/","suspect":0}
,{"lat":48.122693,"lng":-3.297534,"name":"terre du milieu","txt":"Stéphane Le Pabic est installé depuis 2005\nIl cultive actuellement des tomates et petits fruits\nDelphine Lamotte sa compagne est installée en tant que céramiste","wiki":null,"postCode":56160,"city":"Ploërdut","addr":" Roscato","cat":"AF","tel":"0297289983","email":"dahuyaoul@gmail.com","web":"https://www.facebook.com/St%C3%A9phane-Le-Pabic-296738187916860/","suspect":0}
,{"lat":48.094714,"lng":-3.237099,"name":"ferme du lannic","txt":"Cédric Lhermitte est installé depuis 2018\nil cultive des céréales pour faire ses propres farines locales","wiki":null,"postCode":56160,"city":"Ploërdut","addr":" Le Lannic","cat":"AC","tel":"0664316861","email":"fermedulannic@orange.fr","web":"","suspect":0}
,{"lat":48.076602,"lng":-3.276162,"name":"la fontaine airmeth","txt":"Thomas et Claire LE GLATIN : Producteurs locaux en apiculture biologique depuis 2017 / chambres d'hôtes écologiques et insolites depuis 2015","wiki":null,"postCode":56160,"city":"Ploërdut","addr":" 4 KERIO","cat":"AA","tel":"0954422222","email":"t.leglatin@fontaine-airmeth.com","web":"http://www.fontaine-airmeth.com","suspect":0}
,{"lat":48.117771,"lng":-3.277922,"name":"EDORAS","txt":"Elevage de bovins salers","wiki":null,"postCode":56160,"city":"Ploërdut","addr":"LE RUNASQUER 56160 PLOERDUT","cat":"AV","tel":"0642975859","email":"","web":"","suspect":0}
,{"lat":47.568297,"lng":-2.511531,"name":"ATELIERS JEAN-BAPTISTE CHAPUIS","txt":"Restaurateur de meubles","wiki":null,"postCode":56190,"city":"Muzillac","addr":"Hinzal, 56190 MUZILLAC","cat":"OO","tel":"0297415923","email":"jbc@jbchapuis.fr","web":"http://www.jbchapuis.fr","suspect":0}
,{"lat":47.763778,"lng":-2.130499,"name":"FIL DE FÉE","txt":"Sculpteur sur métal","wiki":null,"postCode":56200,"city":"La Gacilly","addr":"9 rue du Relais Postal, ","cat":"OE","tel":"0684013650","email":"fildefee.shantty@gmail.com","web":"","suspect":0}
,{"lat":47.761283,"lng":-2.129943,"name":"LAMUSSE","txt":"Graveur","wiki":null,"postCode":56200,"city":"La Gacilly","addr":"CHEMIN des MARBRIERS, 56200 LA GACILLY","cat":"OD","tel":"0613901797","email":"","web":"","suspect":1}
,{"lat":47.763779,"lng":-2.131526,"name":"LES COULEURS D'AUTOMNE","txt":" Peintre en décor","wiki":null,"postCode":56200,"city":"La Gacilly","addr":"1, RUE  ST VINCENT, ","cat":"OE","tel":"0299080441","email":"","web":"","suspect":1}
,{"lat":47.763161,"lng":-2.130017,"name":"PARCHEMIN ET PAR POT","txt":"Potier de terre cuite","wiki":null,"postCode":56200,"city":"La Gacilly","addr":"21, rue Lafayette, 56200 La gacilly","cat":"OP","tel":"0683154405","email":"","web":"http://www.parcheminetparpot.com","suspect":1}
,{"lat":47.709041,"lng":-2.222785,"name":"ATELIER AUX FILS DE L’ARZ","txt":" Tisserand","wiki":null,"postCode":56220,"city":"Peillac","addr":"Moulin de Guéveneux, 56 220 Peillac","cat":"OE","tel":"0971232866","email":"auxfilsdelarz@orange.fr","web":"http://www.auxfilsdelarz.fr","suspect":0}
,{"lat":47.625849,"lng":-2.405097,"name":"ferme de la maison neuve","txt":"La ferme de la maison neuve est une micro-ferme maraîchère de moins d’un hectare. Notre ferme se situe à Questembert dans le Morbihan (56).\n\nNous produisons des légumes, des plantes comestibles, aromatiques et médicinales et souhaitons favoriser les circuits ultras courts, l’objectifs et de vendre nos produits sur les marchés locaux.","wiki":null,"postCode":56230,"city":"Questembert","addr":" La maison neuve","cat":"AM","tel":"0662684539","email":"fermedelamaisonneuve@gmail.com","web":"https://www.fermedelamaisonneuve.fr/","suspect":0}
,{"lat":47.660948,"lng":-2.454483,"name":"ATELIER PYC","txt":" Tapissier d'ameublement/tapissier décorateur","wiki":null,"postCode":56230,"city":"Questembert","addr":"10, rue de l'Epine, ","cat":"OE","tel":"0660570333","email":"atelierpyc@gmail.com","web":"","suspect":0}
,{"lat":47.659999,"lng":-2.443303,"name":"mgdecors","txt":" Peintre en décor","wiki":null,"postCode":56230,"city":"Questembert","addr":"15 rue des Lilas, ","cat":"OE","tel":"0607696508","email":"mgdecors@orange.fr","web":"http://www.mgdecors.fr","suspect":0}
,{"lat":47.673556,"lng":-2.456345,"name":"Halle Terre Native","txt":"","wiki":null,"postCode":56230,"city":"Questembert","addr":"47 Rue du Maguero ","cat":"AG","tel":"0297010957","email":"","web":"https://www.facebook.com/halleterrenative","suspect":0}
,{"lat":47.956148,"lng":-3.304183,"name":"ona'turel","txt":"Ona Pena et Yoann  Hervé installés depuis 2014\nLégumes bio en agriculture biologique","wiki":null,"postCode":56240,"city":"Plouay","addr":" Kermouel","cat":"AM","tel":"0645663952","email":"legumes.onaturel@outlook.fr","web":"","suspect":0}
,{"lat":47.865119,"lng":-3.305071,"name":"Kelan Fruits","txt":"Producteur de fruits rouges","wiki":null,"postCode":56240,"city":"Calan","addr":"Ty Névé Guernalan ","cat":"AF","tel":"0626258260","email":"","web":"","suspect":0}
,{"lat":47.673734,"lng":-2.551914,"name":"GAEC de Coet-Navalen","txt":"agriculteur maraicher","wiki":null,"postCode":56250,"city":"Sulniac","addr":"coet-navalen ","cat":"AM","tel":"0297532329","email":"","web":"","suspect":0}
,{"lat":47.689647,"lng":-2.545119,"name":"ART'ÉBÈN","txt":" Ebéniste","wiki":null,"postCode":56250,"city":"La Vraie-Croix","addr":"11 rue du Paraddis, ","cat":"OO","tel":"0686232103","email":"contact@arteben.com","web":"http://www.arteben.com","suspect":0}
,{"lat":47.732004,"lng":-2.590584,"name":"ART'S DU FEU","txt":"Restaurateur de vitraux","wiki":null,"postCode":56250,"city":"Elven","addr":"3, rue nationale, ","cat":"OI","tel":"0622760460","email":"contact@artsdufeu.fr","web":"http://www.artsdufeu.fr","suspect":0}
,{"lat":47.732673,"lng":-2.703487,"name":"L'ARTDUROC","txt":" Sculpteur sur pierre","wiki":null,"postCode":56250,"city":"Monterblanc","addr":"Le Hent Coët, ","cat":"OZ","tel":"0623793757","email":"christian.pierrefixe@wanadoo.fr","web":"","suspect":1}
,{"lat":47.6958,"lng":-2.635877,"name":"PATRICK DEVERGNE, ÉBÉNISTE","txt":"Restaurateur de meubles","wiki":null,"postCode":56250,"city":"Saint-Nolff","addr":"Parc d'Activités de Kerboulard, ","cat":"OO","tel":"0633734908","email":"devergne.ebeniste@wanadoo.fr","web":"http://www.devergne-ebeniste.fr","suspect":0}
,{"lat":47.731305,"lng":-2.590122,"name":"Aux Champs","txt":"Produits : Rayon bio, Fruits, Légumes, Poissons, Viandes, Fromages, Oeufs et produits laitiers, Pain et patisseries, Épicerie, Jus et sirops","wiki":null,"postCode":56250,"city":"Elven","addr":"Rue Saint-Antoine ","cat":"AG","tel":"0683886159","email":"","web":"","suspect":0}
,{"lat":47.675196,"lng":-2.565458,"name":"Ciboulette et Compagnie","txt":"Produits : Rayon bio","wiki":null,"postCode":56250,"city":"Sulniac","addr":"Impasse des Noisetiers ","cat":"AG","tel":"","email":"","web":"","suspect":0}
,{"lat":47.728765,"lng":-3.445613,"name":"L'ANGE EST LÀ","txt":"Bijoutier fantaisie","wiki":null,"postCode":56270,"city":"Ploemeur","addr":"","cat":"OB","tel":"","email":"ange.est.la@wanadoo.fr","web":"","suspect":1}
,{"lat":48.054362,"lng":-2.951915,"name":"le lavandier charcutier pontivy","txt":"Eleveur charcutier","wiki":null,"postCode":56300,"city":"Pontivy","addr":" Avenue des Cités Unies ","cat":"AG","tel":"0297252505","email":"contact@lelavandier.fr","web":"https://www.lelavandier.fr/","suspect":0}
,{"lat":48.0512,"lng":-2.964649,"name":"CRÉATION MAX VINCENT","txt":" Bottier main","wiki":null,"postCode":56300,"city":"Le Sourn","addr":"Allée de Savoie 2  ZI sud, 26300 Bourg-de-Péage","cat":"HB","tel":"0475724305","email":"info@maxvincent.com","web":"","suspect":1}
,{"lat":48.077836,"lng":-2.972178,"name":"Au Marché du Gros Chêne","txt":"Produits : Rayon bio, Fruits, Légumes, Viandes, Traiteur et charcuterie, Volaille et lapin, Fromages, Oeufs et produits laitiers, Pain et patisseries, Miels et confitures, Huiles et vinaigres, Épicerie, Vins et alcools, Jus et sirops","wiki":null,"postCode":56300,"city":"Pontivy","addr":"Rue de Bretagne ","cat":"AG","tel":"0297070874","email":"","web":"https://www.legroschene.fr","suspect":0}
,{"lat":47.940173,"lng":-3.096269,"name":"ferme pemoch buoch","txt":"Sandra Bouin s'est installée en 2018 sur une ferme de 49 hectares pour élever des cochons et vaches limousines nourries à l'herbe","wiki":null,"postCode":56310,"city":"Quistinic","addr":" Kersager","cat":"AV","tel":"0615340729","email":"pemochbuoch@gmail.com","web":"","suspect":1}
,{"lat":47.98152,"lng":-3.147313,"name":"fermette de stivel","txt":"Aude Allain et Olivier Passalacqua sont installés depuis","wiki":null,"postCode":56310,"city":"Bubry","addr":" Stivel","cat":"A","tel":"0618653759","email":"","web":"http://lafermettedestivel.fr/","suspect":0}
,{"lat":47.9074,"lng":-3.178744,"name":"Louis-Marie Sire","txt":"Agriculteur","wiki":null,"postCode":56310,"city":"Quistinic","addr":"La Ferme de Kermelin ","cat":"AV","tel":"0766505983","email":"","web":"","suspect":0}
,{"lat":47.989373,"lng":-3.158002,"name":"La Ferme Le Beller","txt":"agriculteur-éleveur-abattoir-transformateur","wiki":null,"postCode":56310,"city":"Bubry","addr":"bieuzen 56310 bubry","cat":"AV","tel":"0297517938","email":"","web":"","suspect":0}
,{"lat":47.900771,"lng":-3.145728,"name":"Julie Le Hazif","txt":"Maraîchère bio","wiki":null,"postCode":56310,"city":"Quistinic","addr":"Kermoël Bihan ","cat":"AM","tel":"0297397949","email":"","web":"","suspect":0}
,{"lat":47.955218,"lng":-3.069298,"name":"LES TRUITES BIO DE LA SARRE","txt":"Pisciculteur","wiki":null,"postCode":56310,"city":"Melrand","addr":"Le Bourdoux 56310 MELRAND","cat":"AP","tel":"0297284592","email":"","web":"","suspect":0}
,{"lat":48.041065,"lng":-3.517532,"name":"La Ferme de Rouzen","txt":"maraicher","wiki":null,"postCode":56320,"city":"Le Faouët","addr":"4 Villeneuve Rouzen ","cat":"AM","tel":"0650572367","email":"","web":"","suspect":0}
,{"lat":47.623972,"lng":-2.188059,"name":"gaec les ecureuils","txt":"Nous produisons et transformons à la ferme des pâtes fraîches aux oeufs frais et des raviolis végétariens.","wiki":null,"postCode":56350,"city":"Allaire","addr":" 131 LE VAL","cat":"AO","tel":"0641100250","email":"gaeclesecureuils@gmail.com","web":"","suspect":0}
,{"lat":47.660518,"lng":-2.13344,"name":"ATELIER JEAN-YVES LE BOT","txt":" Restaurateur de meubles","wiki":null,"postCode":56350,"city":"Saint-Jean-la-Poterie","addr":"Camblon, 56350 ST JEAN LA POTERIE","cat":"OO","tel":"0681751775","email":"lebot@restaurationmobilier.fr","web":"http://www.lebot-restaurationmobilier.fr","suspect":0}
,{"lat":47.322115,"lng":-3.168798,"name":"Eric Le Goué","txt":"Maraîcher, horticulteur et pépiniériste","wiki":null,"postCode":56360,"city":"Bangor","addr":"Parlevant ","cat":"AM","tel":"0297313427","email":"","web":"","suspect":0}
,{"lat":47.334238,"lng":-3.154229,"name":"ATELIER DU BOIS","txt":"Sculpteur sur bois","wiki":null,"postCode":56360,"city":"Le Palais","addr":"Borthelo, ","cat":"OO","tel":"0689410201","email":"","web":"","suspect":1}
,{"lat":47.335282,"lng":-3.164965,"name":"DANNIC PHOTO","txt":" Photographe illustrateur","wiki":null,"postCode":56360,"city":"Le Palais","addr":"Borgrouaguer, ","cat":"OD","tel":"0607970197","email":"p.steven2@wanadoo.fr","web":"http://www.philippedannic.com","suspect":0}
,{"lat":47.34056,"lng":-3.16272,"name":"FLUïD","txt":"Verrier à la main","wiki":null,"postCode":56360,"city":"Le Palais","addr":"Vallon de Bordilla, ","cat":"OR","tel":"0628323412","email":"fluidcreationverre@me.com","web":"http://www.fluid.coop","suspect":0}
,{"lat":47.328226,"lng":-3.165322,"name":"Au Coin des Producteurs","txt":"","wiki":null,"postCode":56360,"city":"Le Palais","addr":"ZA de Mérézelle ","cat":"AG","tel":"0297313766","email":"","web":"","suspect":0}
,{"lat":47.518034,"lng":-2.68063,"name":"Ferme fromagère de Suscinio","txt":"Producteur de lait - Fromager","wiki":null,"postCode":56370,"city":"Sarzeau","addr":"Route de Penvins ","cat":"AF","tel":"0660735912","email":"","web":"","suspect":0}
,{"lat":47.525836,"lng":-2.624758,"name":"Les Perles de Godec","txt":"Ostréiculteur","wiki":null,"postCode":56370,"city":"Le Tour-du-Parc","addr":"Rue de Beguero ","cat":"AP","tel":"0663926858","email":"","web":"","suspect":0}
,{"lat":47.520012,"lng":-2.780919,"name":"ATELIER CAROLYN ROGERS","txt":"Verrier au chalumeau ","wiki":null,"postCode":56370,"city":"Sarzeau","addr":"2, rue de Govéan Zone d'activités de Kérollaire, ","cat":"OR","tel":"0671476060","email":"carolyn.rogers@free.fr","web":"http://atelier-carolynrogers.com","suspect":0}
,{"lat":47.510131,"lng":-2.787633,"name":"Court Circuit","txt":"Produits : Rayon bio, Fruits, Légumes, Poissons, Viandes, Traiteur et charcuterie, Fromages, Pain et patisseries, Miels et confitures, Épicerie, Vins et alcools, Jus et sirops","wiki":null,"postCode":56370,"city":"Sarzeau","addr":"Route de Kerseal ","cat":"AG","tel":"0297475682","email":"","web":"https://www.magasincourtcircuit.com/","suspect":0}
,{"lat":47.971702,"lng":-2.170981,"name":"Porcelaine de Brocéliande","txt":"Restaurateur de faïence et de porcelaine","wiki":null,"postCode":56380,"city":"Beignon","addr":"6 rue du Rocher Glissant, ","cat":"OP","tel":"0658636315","email":"ajp.gauchet@gmail.com","web":"","suspect":1}
,{"lat":47.747441,"lng":-2.767672,"name":"Skoczek Victoria","txt":"Agricultrice","wiki":null,"postCode":56390,"city":"Locqueltas","addr":"Kerdossen ","cat":"AV","tel":"0631130407","email":"","web":"","suspect":0}
,{"lat":47.832384,"lng":-2.774522,"name":"HL","txt":" Tapissier d'ameublement/tapissier décorateur","wiki":null,"postCode":56390,"city":"Colpo","addr":"4 Kerjagu, ","cat":"OE","tel":"0649790439","email":"contact.hl56@gmail.com","web":"","suspect":1}
,{"lat":47.685873,"lng":-2.955258,"name":"ferme mamie poule","txt":"De manière plus concrète, nous avons redonné vie à un lieu familial et y avons établis une ferme maraîchère nommée Mamie Poule, un garde-manger 100% fermier. Nous sommes producteur et récoltant, nous choisissons des variétés anciennes adaptées au terroir du Morbihan. \nN'hésitez pas à venir nous découvrir au marché ou directement à la ferme :D","wiki":null,"postCode":56400,"city":"Pluneret","addr":" 25 rue de Lescheby","cat":"AM","tel":"0601346022","email":"jegousser@gmail.com","web":"","suspect":0}
,{"lat":47.725961,"lng":-3.038352,"name":"Demoiselles de Kermelen","txt":"Fromager","wiki":null,"postCode":56400,"city":"Brech","addr":"Kermelen 56400 Brec'h","cat":"AF","tel":"0603166526","email":"","web":"","suspect":0}
,{"lat":47.687401,"lng":-3.017757,"name":"EARL Les Vergers de Kerbellec","txt":"Arboriculteur","wiki":null,"postCode":56400,"city":"Brech","addr":"Kerbellec ","cat":"AM","tel":"0297241661","email":"","web":"","suspect":0}
,{"lat":47.666435,"lng":-2.981534,"name":"ART CéRAMIQUE","txt":" Céramiste","wiki":null,"postCode":56400,"city":"Auray","addr":"23 rue du château, ","cat":"OP","tel":"0635922664","email":"a.kerdavid@free.fr","web":"","suspect":1}
,{"lat":47.667225,"lng":-2.981907,"name":"ATELIER JC BROSSARD","txt":" Restaurateur de meubles","wiki":null,"postCode":56400,"city":"Auray","addr":"15, rue Philippe Vannier, 56400 AURAY","cat":"OO","tel":"0297507255","email":"boitejcb@neuf.fr","web":"","suspect":1}
,{"lat":47.69147,"lng":-3.003777,"name":"Atelier Prim'verre","txt":"Restaurateur de vitraux","wiki":null,"postCode":56400,"city":"Brech","addr":"6 lotissement Kerberluet, 56400 BRECH","cat":"OR","tel":"0662140290","email":"primverre@yahoo.fr","web":"http://www.primverre.fr","suspect":0}
,{"lat":47.672979,"lng":-2.990904,"name":"Julie Martre Bijoux Contemporains","txt":" Bijoutier en métaux précieux","wiki":null,"postCode":56400,"city":"Auray","addr":"12, rue Adjudant chef Redien, 56400 AURAY","cat":"OB","tel":"0613960986","email":"juliemartrebc@gmail.com","web":"","suspect":0}
,{"lat":47.65026,"lng":-3.186131,"name":"graines de saint germain","txt":"Nous (Anne-Sophie, Karine, François et Nathalie) produisons des légumes, des œufs, des plantes aromatiques et médicinales et des conserves en Agriculture Biologique. \nNous proposons également de l' accueil pédagogique et de la formation.","wiki":null,"postCode":56410,"city":"Erdeven","addr":" Saint Germain","cat":"AM","tel":"0972256509","email":"grainesdesaintgermain@gmail.com","web":"https://www.saintgermainetcompagnie.fr/","suspect":0}
,{"lat":47.848975,"lng":-2.622852,"name":"BRODELINE","txt":" Brodeur","wiki":null,"postCode":56420,"city":"Plumelec","addr":"Trévozan, 56420 PLUMELEC","cat":"HD","tel":"0621933567","email":"broderie.brodeline@gmail.com","web":"http://www.brodeline.com","suspect":0}
,{"lat":48.056724,"lng":-2.203699,"name":"ferme de la bouvrais","txt":"Sur la ferme de la Bouvrais nous produisons des légumes issus de semences paysannes, et bientôt des produits laitiers de brebis et de vaches bretonnes pie noires.","wiki":null,"postCode":56430,"city":"Concoret","addr":" La Bouvrais","cat":"AM","tel":"0984459781","email":"earldelabouvrais@protonmail.com","web":"https://rumex.herbesfolles.org","suspect":0}
,{"lat":47.565539,"lng":-2.716637,"name":"GAEC la ferme de lasné","txt":"agriculteur","wiki":null,"postCode":56450,"city":"Saint-Armel","addr":"11 route du bel air 56450 saint armel","cat":"AV","tel":"0637383148","email":"","web":"","suspect":0}
,{"lat":47.569986,"lng":-2.712386,"name":"Biscuiterie des Vénètes","txt":"Artisan biscuitier","wiki":null,"postCode":56450,"city":"Saint-Armel","addr":"15 route de Saint-Colombier ","cat":"AO","tel":"0297439124","email":"","web":"","suspect":0}
,{"lat":47.782449,"lng":-3.434511,"name":"Ferme de La Trinité","txt":"Producteur laitier","wiki":null,"postCode":56530,"city":"Quéven","addr":"La Trinité ","cat":"AF","tel":"0966122445","email":"","web":"","suspect":0}
,{"lat":47.777041,"lng":-3.389804,"name":"La Ferme de Beg-Runio","txt":"Produits : Rayon bio, Fruits, Légumes, Viandes, Traiteur et charcuterie, Volaille et lapin, Oeufs et produits laitiers","wiki":null,"postCode":56530,"city":"Quéven","addr":"13 Rue Branly ZA de Beg Runio ","cat":"AG","tel":"0297050156","email":"","web":"http://www.begrunio.jimdo.com/","suspect":0}
,{"lat":48.100494,"lng":-3.363143,"name":"ferme ty nevez","txt":"Marina et Philippe Porché ont repris la ferme en 2022 (la ferme existe depuis 2005)","wiki":null,"postCode":56540,"city":"Saint-Tugdual","addr":" Ty nevez","cat":"AV","tel":"0664335917","email":"","web":"https://www.facebook.com/Ferme-avicole-Ty-nevez-106860595243059/","suspect":0}
,{"lat":48.045681,"lng":-3.357474,"name":"la bouquetière","txt":"Eva Sheperd est installée depuis 2017 et produits ses propres fleurs et plants de manière naturelle et sans pesticides","wiki":null,"postCode":56540,"city":"Saint-Caradec-Trégomel","addr":" Kerguédalen ","cat":"A","tel":"0297000000","email":"kerguedalen56@gmail.com","web":"https://www.facebook.com/LaBouquetierdeBretagne/","suspect":0}
,{"lat":47.689174,"lng":-3.049375,"name":"La Ferme du Park","txt":"élevage porcins","wiki":null,"postCode":56550,"city":"Locoal-Mendon","addr":"Parc tremenhoarn 56550 Locoal Mendon","cat":"AV","tel":"0679085974","email":"","web":"","suspect":0}
,{"lat":47.725517,"lng":-3.078847,"name":"EURL ARHIMEN","txt":"Tailleur de pierre","wiki":null,"postCode":56550,"city":"Locoal-Mendon","addr":"zone de Poulvern, ","cat":"OZ","tel":"0297246122","email":"contact@arhimen.com","web":"http://www.arhimen.com","suspect":0}
,{"lat":48.071838,"lng":-3.624266,"name":"GAEC de Vil Huen","txt":"Eleveur de porc bio","wiki":null,"postCode":56560,"city":"Guiscriff","addr":"Kernaen ","cat":"AV","tel":"0297341560","email":"","web":"","suspect":0}
,{"lat":47.64011,"lng":-3.486889,"name":"L'Escargoterie de l'île de Groix","txt":"Héliciculteur","wiki":null,"postCode":56590,"city":"Groix","addr":"Kerbus ","cat":"AP","tel":"0297865894","email":"","web":"","suspect":0}
,{"lat":47.64106,"lng":-3.435833,"name":"Gravagroix","txt":" Graveur sur ivoire et autres matériaux d'origine animale","wiki":null,"postCode":56590,"city":"Groix","addr":"7407 Fort du Méné Kervaillet, 56590 GROIX","cat":"OD","tel":"0650740954","email":"rcottendin@gmail.com","web":"http://www.gravagroix.com","suspect":0}
,{"lat":47.630315,"lng":-2.832427,"name":"GAEC de la ferme de l'étang","txt":"Eleveur","wiki":null,"postCode":56610,"city":"Arradon","addr":"6 chemin de la ferme de l'étang 56610 ARRADON","cat":"AV","tel":"0662857743","email":"","web":"","suspect":0}
,{"lat":47.625791,"lng":-2.86108,"name":"Philippe Le Gauthier","txt":"Agriculteur","wiki":null,"postCode":56610,"city":"Arradon","addr":"1 Chemin de Talhouarch 56610 ARRADON","cat":"AV","tel":"0297447821","email":"","web":"","suspect":0}
,{"lat":47.827557,"lng":-3.407751,"name":"GAEC Nevannen","txt":"Producteur laitier","wiki":null,"postCode":56620,"city":"Pont-Scorff","addr":"Mane Guennec ","cat":"AF","tel":"0663403347","email":"","web":"","suspect":0}
,{"lat":47.836179,"lng":-3.400373,"name":"BEAUTILE","txt":"Décorateur sur verre","wiki":null,"postCode":56620,"city":"Pont-Scorff","addr":"15, rue Terrien, ","cat":"OE","tel":"0672279522","email":"","web":"","suspect":1}
,{"lat":47.835294,"lng":-3.394855,"name":"FEUILLE DE VERRE","txt":"Restaurateur de vitraux","wiki":null,"postCode":56620,"city":"Pont-Scorff","addr":"2, rue du vieux Pont, 56 620 Pont-Scorff","cat":"OI","tel":"0297324247","email":"","web":"http://www.feuilledeverre.com","suspect":1}
,{"lat":47.844843,"lng":-3.301458,"name":"ÉlémenTerre","txt":"Producteur d'amendements organique et minéral pour l'agriculture biologique.","wiki":null,"postCode":56650,"city":"Inzinzac-Lochrist","addr":"Kéroman ","cat":"AO","tel":"0661058301","email":"","web":"","suspect":0}
,{"lat":47.847085,"lng":-2.712187,"name":"gaec l'abeille de lanvaux","txt":"APICULTEUR","wiki":null,"postCode":56660,"city":"Saint-Jean-Brévelay","addr":"26 rue du govéro 56660 SAINT JEAN-BREVELAY","cat":"AA","tel":"0621573579","email":"abeilledelanvaux@gmail.com","web":"http://abeilledelanvaux.fr/","suspect":0}
,{"lat":47.854937,"lng":-2.752315,"name":"ATELIER B. MIGEON","txt":" Ivoirier","wiki":null,"postCode":56660,"city":"Saint-Jean-Brévelay","addr":"Tenelues, 56660 Saint Jean Brevelay","cat":"OE","tel":"0297604783","email":"","web":"","suspect":1}
,{"lat":47.675699,"lng":-3.220554,"name":"LES PANIERS DE LA RIA","txt":"Maraicher","wiki":null,"postCode":56680,"city":"Plouhinec","addr":"6 Rue de Cordanguy 56680 PLOUHINEC","cat":"AM","tel":"0688182645","email":"","web":"","suspect":0}
,{"lat":47.716337,"lng":-3.272151,"name":"GAEC de Saint Sauveur","txt":"bovins laitiers","wiki":null,"postCode":56700,"city":"Merlevenez","addr":"Lieu dit Saint Sauveur 56700 MERLEVENEZ","cat":"AF","tel":"0642253156","email":"","web":"","suspect":0}
,{"lat":47.77559,"lng":-3.276246,"name":"Germain Mahéo","txt":"Maraîcher","wiki":null,"postCode":56700,"city":"Kervignac","addr":"Le Hingair ","cat":"AM","tel":"0652140873","email":"","web":"","suspect":0}
,{"lat":47.796867,"lng":-3.243696,"name":"Ty Producteurs","txt":"Produits : Rayon bio, Traiteur et charcuterie","wiki":null,"postCode":56700,"city":"Kervignac","addr":"ZA Braigno ","cat":"AG","tel":"0297878328","email":"","web":"","suspect":0}
,{"lat":47.495029,"lng":-2.819596,"name":"JEAN-PIERRE DEGUILLEMENOT","txt":" Verrier","wiki":null,"postCode":56730,"city":"Saint-Gildas-de-Rhuys","addr":"28 route de Kernolives, 56730 Saint Gildas de rhuys","cat":"OR","tel":"0686898826","email":"jp.deguillemenot@wanadoo.fr","web":"http://www.jpdeguillemenot.com","suspect":0}
,{"lat":47.913521,"lng":-2.397652,"name":"ferme de gourhert","txt":"Maraîchers, éleveurs de brebis et de vaches ainsi que de poules pondeuses, nous proposons nos produits a la vente a la ferme ainsi que ce de plus de 40 collèges principalement locaux.","wiki":null,"postCode":56800,"city":"Ploërmel","addr":" 4 gourhert 56800 Ploërmel ","cat":"AM","tel":"0632885368","email":"ferme-de-gourhert@orange.fr","web":"http://www.fermedegourhert.fr","suspect":0}
,{"lat":47.931974,"lng":-2.395496,"name":"LA FABRICA","txt":"Orfèvre","wiki":null,"postCode":56800,"city":"Ploërmel","addr":"Impasse Saint-Joseph BP 80033, ","cat":"OB","tel":"0662588232","email":"","web":"http://la-fabrica.fr","suspect":1}
,{"lat":47.817388,"lng":-3.345325,"name":"BERNARD LOFFET - FACTEUR D'ACCORDÉONS","txt":" Facteur et restaurateur d'accordéons","wiki":null,"postCode":56850,"city":"Caudan","addr":"4, rue commandant Cousteau, ","cat":"OL","tel":"0297056892","email":"info@diato.org","web":"http://www.diato.org","suspect":0}
,{"lat":47.652018,"lng":-2.720339,"name":"Le Local Bio","txt":"Produits : Rayon bio","wiki":null,"postCode":56860,"city":"Séné","addr":"7 rue d’Alsace ","cat":"AG","tel":"0750279816","email":"","web":"http://lelocalbio.e-monsite.com/","suspect":0}
,{"lat":47.604507,"lng":-2.869593,"name":"JEAN PAUL SOULET","txt":" Céramiste","wiki":null,"postCode":56870,"city":"Baden","addr":"Les quatre vents de Port Blanc, ","cat":"OP","tel":"0297572380","email":"ceramiques-soulet@orange.fr","web":"","suspect":1}
,{"lat":47.629142,"lng":-2.883966,"name":"JEAN-BERNARD BLAISE - PEINTRE EN DECOR","txt":"Staffeur-stucateur","wiki":null,"postCode":56870,"city":"Baden","addr":"14, route du roi Stevan Kervernir, ","cat":"OE","tel":"0680831058","email":"","web":"http://www.avecmespinceaux.com","suspect":1}
,{"lat":48.058192,"lng":-2.869628,"name":"Régis Le Moullac","txt":"Agriculteur","wiki":null,"postCode":56920,"city":"Noyal-Pontivy","addr":"Belle Chère ","cat":"AC","tel":"0682179023","email":"","web":"","suspect":0}
,{"lat":48.115719,"lng":-2.792666,"name":"EARL de la Cavalerie","txt":"Producteur de denrées alimentaires","wiki":null,"postCode":56920,"city":"Saint-Gonnery","addr":"La Cavalerie ","cat":"AO","tel":"0633692781","email":"","web":"","suspect":0}
,{"lat":47.945004,"lng":-3.016113,"name":"le domaine de dana","txt":"Producteur de PORC MANGALITZA en plein air.\nValorisation de notre viande à travers la vente directe, snack à la ferme sur réservation et food truck","wiki":null,"postCode":56930,"city":"Pluméliau-Bieuzy","addr":" KERIDAN 56930 Pluméliau ","cat":"AV","tel":"0762468418","email":"domainededana@gmail.com","web":"","suspect":1}
]}