{"id":5,"producers":[
{"lat":44.531085,"lng":6.048262,"name":"Le Panier Gapençais","txt":"Produits : Fruits, Légumes, Poissons, Viandes, Traiteur et charcuterie, Volaille et lapin, Fromages, Oeufs et produits laitiers, Pain et patisseries, Miels et confitures, Huiles et vinaigres, Épicerie, Vins et alcools, Jus et sirops","wiki":null,"postCode":5000,"city":"Gap","addr":"78 avenue de Provence ","cat":"AG","tel":"0486990747","email":"","web":"https://www.facebook.com/LePanierGapencais","suspect":0}
,{"lat":44.869506,"lng":6.718329,"name":"Charles Maillet","txt":"Eleveur","wiki":null,"postCode":5100,"city":"Cervières","addr":"59 Le Chef Lieu ","cat":"AV","tel":"0685307930","email":"","web":"","suspect":0}
,{"lat":44.417963,"lng":5.966691,"name":"herbiolys laboratoire","txt":"Herbiolys commercialise des cosmétiques naturels (huiles bien-être, savons).","wiki":null,"postCode":5110,"city":"Lardier-et-Valença","addr":" Le Clos des Passerelles Plan de Lardier ","cat":"P","tel":"0492446171","email":"","web":"http://www.herbiolys.fr/","suspect":0}
,{"lat":44.488284,"lng":6.127308,"name":"mes jus de fruits","txt":"Agriculteur","wiki":null,"postCode":5130,"city":"Valserres","addr":"Rue de l'Eglise ","cat":"AM","tel":"0492543004","email":"","web":"","suspect":0}
,{"lat":44.505216,"lng":6.084121,"name":"la ferme de louise","txt":"Productrice, distillatrice et transformation de plantes aromatiques et médicinales. \nCosmétiques : huiles essentielles, hydrolats, lotions, baumes …","wiki":null,"postCode":5130,"city":"Jarjayes","addr":" Les sayons ","cat":"P","tel":"0611314797","email":"Lafermedelouise05@gmail.com","web":"http://www.Lafermedelouise.eu","suspect":0}
,{"lat":44.504045,"lng":6.112272,"name":"Un Air d'Ailleurs","txt":"Maraîchage et yourtes à la ferme","wiki":null,"postCode":5130,"city":"Jarjayes","addr":"La Tour ","cat":"AM","tel":"0689899248","email":"","web":"","suspect":0}
,{"lat":44.390882,"lng":5.461932,"name":"Marion Richaume","txt":"Tourneur céramique","wiki":null,"postCode":5150,"city":"Rosans","addr":"Route de la Chapelle, ","cat":"OP","tel":"0664309558","email":"levanah.atelierdelalune@gmail.com","web":"http://marionrichaume.com","suspect":0}
,{"lat":44.683203,"lng":6.312148,"name":"les ruches d'orcières","txt":"Vente de Miel en pots de 250 gr et 500gr sur la commune d'orcières\n\nJe propose different Miel:\n\n- Miel de lavande\n- Miel de Montagne\n- Miel cremeux\n\nMerci de me contacter au 0672154873","wiki":null,"postCode":5170,"city":"Orcières","addr":" Bousensayes ","cat":"AA","tel":"0672154873","email":"loicgiraud@hotmail.fr","web":"","suspect":0}
,{"lat":44.574264,"lng":6.50355,"name":"fruit des abeilles","txt":"Production Miel et produits dérivés ( Bougies,Pollen,Savons...)","wiki":null,"postCode":5200,"city":"Embrun","addr":" \"le vieux chalet\" 38 Route de chalvet ","cat":"AA","tel":"","email":"mathieu_picavet@hotmail.com","web":"","suspect":0}
,{"lat":44.548132,"lng":6.488981,"name":"bio-jardin","txt":"Bio-Jardin est une exploitation agricole qui propose fruits et légumes.","wiki":null,"postCode":5200,"city":"Embrun","addr":" Le Liou R.N. 94 - Baratier ","cat":"AM","tel":"0492431297","email":"","web":"","suspect":0}
,{"lat":44.564497,"lng":6.491993,"name":"FRANçOISE CALLIER","txt":" Lissier","wiki":null,"postCode":5200,"city":"Embrun","addr":"Promenade du Tour des Portes La Roseraie, ","cat":"OE","tel":"0677255902","email":"fcallier@hotmail.com","web":"","suspect":0}
,{"lat":44.535421,"lng":6.315815,"name":"GAEC Les Lilas","txt":"Agriculteur éleveur","wiki":null,"postCode":5230,"city":"Chorges","addr":"Les Olliviers ","cat":"AV","tel":"0616964734","email":"","web":"","suspect":0}
,{"lat":44.671283,"lng":6.238614,"name":"gayral","txt":"Producteur de jus d'argousier, de sève de bouleau, de jus de fruits, de liqueurs, de cosmétiques et distillateur de plantes.","wiki":null,"postCode":5260,"city":"Saint-Jean-Saint-Nicolas","addr":" Pont du Fossé 0","cat":"AF","tel":"0492559356","email":"sarl-gayral@orange.fr","web":"","suspect":1}
,{"lat":44.343654,"lng":5.769246,"name":"catherine et robert blanc","txt":"L'exploitation agricole de Lagrand produit des fruits, des jus de fruits et des légumes variés (légumes à cosse secs, à cosse verts, à fruits, feuilles-tiges, racines-bulbes).","wiki":null,"postCode":5300,"city":"Garde-Colombe","addr":" 3 allée des Framboisiers 05300 Lagrand ","cat":"AM","tel":"0492543004","email":"blanc.jusderaisin@free.fr","web":"","suspect":0}
,{"lat":44.316779,"lng":5.821702,"name":"AUX FAUTEUILS DE FLORE","txt":" Tapissier d'ameublement/tapissier décorateur","wiki":null,"postCode":5300,"city":"Laragne-Montéglin","addr":"Le Passage, 05300 Antonaves","cat":"OE","tel":"0676750968","email":"","web":"","suspect":0}
,{"lat":44.76137,"lng":6.529805,"name":"CHRISTIAN BURGER","txt":"Sculpteur sur pierre","wiki":null,"postCode":5310,"city":"Freissinières","addr":"Les Hodouls, ","cat":"OE","tel":"0492209775","email":"ch.burger@wanadoo.fr","web":"http://www.sculpteur-burger.com","suspect":0}
,{"lat":44.841763,"lng":6.477005,"name":"les mille verts","txt":"Les Milles Verts ont pour activités l'arboriculture et l’horticulture maraichère.","wiki":null,"postCode":5340,"city":"Vallouise-Pelvoux","addr":" Le Villard 05290 Vallouise ","cat":"AMF","tel":"0676320617","email":"","web":"","suspect":0}
,{"lat":44.726784,"lng":6.87532,"name":"Le Bois d'Ylva","txt":"Tourneur sur bois","wiki":null,"postCode":5350,"city":"Molines-en-Queyras","addr":"Lieu-dit Le Vieux Coin, ","cat":"OO","tel":"0683357515","email":"leboisdylva@yahoo.fr","web":"http://leboisdylva.weebly.com/","suspect":0}
,{"lat":44.544484,"lng":5.956606,"name":"agriculteurs vente directe à la ferme viande bovine","txt":"agriculteur","wiki":null,"postCode":5400,"city":"Manteyer","addr":"Les allemands ferme jean de florette 05400 manteyer","cat":"AV","tel":"0660069394","email":"","web":"","suspect":0}
,{"lat":44.564297,"lng":6.002946,"name":"miellerie de la haute correo","txt":"Miellerie de la Haute Correo a pour activité l'apiculture, l'horticulture maraichère et la fabrication de compotes, confitures et savons.","wiki":null,"postCode":5400,"city":"La Roche-des-Arnauds","addr":" Route de Rabou D503 ","cat":"AA","tel":"0492438211","email":"","web":"","suspect":0}
,{"lat":44.7747,"lng":6.953637,"name":"La chevrerie de Sasha et compagnie","txt":"Producteur de fromage de chèvre fermier","wiki":null,"postCode":5460,"city":"Abriès-Ristolas","addr":"La monta 05460 Abries-ristolas","cat":"AF","tel":"0766309734","email":"","web":"","suspect":0}
,{"lat":44.822287,"lng":6.944145,"name":"ET LA MONTAGNE FLEURIRA","txt":"Sculpteur sur bois","wiki":null,"postCode":5460,"city":"Abriès-Ristolas","addr":"LE ROUX, 05460 ABRIES","cat":"OO","tel":"0492467312","email":"mpchave@orange.fr","web":"http://etlamontagnefleurira.fr","suspect":0}
,{"lat":44.669396,"lng":6.625712,"name":"Atelier de reliure Amandine Verdant","txt":"Restaurateur de reliures","wiki":null,"postCode":5600,"city":"Mont-Dauphin","addr":"Place Marquis de Larray, 05600 MONT-DAUPHIN","cat":"OD","tel":"0683103716","email":"dine.verdant@gmail.com","web":"","suspect":1}
,{"lat":44.669586,"lng":6.624221,"name":"Atelier Cartonelle","txt":" Fabricant de papier","wiki":null,"postCode":5600,"city":"Mont-Dauphin","addr":"Caserne Campana, 05600 MONT-DAUPHIN FORT","cat":"OD","tel":"0670148430","email":"contact@cartonelle.com","web":"http://www.cartonelle.com","suspect":0}
,{"lat":44.659255,"lng":6.659651,"name":"Le terrier du Renard Blanc","txt":"Potier de porcelaine","wiki":null,"postCode":5600,"city":"Guillestre","addr":"11 Impasse du Chazal, ","cat":"OP","tel":"0667104945","email":"sophieleta@gmail.com","web":"http://sophieleta.com/","suspect":0}
,{"lat":44.656117,"lng":6.584123,"name":"Pause Paysanne","txt":"","wiki":null,"postCode":5600,"city":"Saint-Clément-sur-Durance","addr":"Route Nationale 94 ","cat":"AG","tel":"0492516164","email":"","web":"","suspect":0}
,{"lat":44.329036,"lng":5.682721,"name":"Spiruline d'Orpierre","txt":"Culture phytoplanctonique","wiki":null,"postCode":5700,"city":"Orpierre","addr":"Les Parayes Côté Montagne ","cat":"AO","tel":"0642613989","email":"","web":"","suspect":0}
,{"lat":44.414794,"lng":5.682478,"name":"L'ATELIER D'ART","txt":"Peintre décorateur sur tissu","wiki":null,"postCode":5700,"city":"Montclus","addr":"Le village, ","cat":"OD","tel":"0492670961","email":"jean-marc.desreumaux@wanadoo.fr","web":"http://latelierdart.fr","suspect":0}
,{"lat":44.419776,"lng":5.65606,"name":"ATELIER MARC LAVARENNE","txt":"Maçon","wiki":null,"postCode":5700,"city":"Montclus","addr":"Le Petit Terrus, 05700 MONTCLUS","cat":"OM","tel":"0688733178","email":"marc.lavarenne@orange.fr","web":"http://www.terrus.fr","suspect":0}
]}