{"id":59,"producers":[
{"lat":50.72632065233137,"lng":3.196244360186072,"name":"La Gentle Factory","web":"http://www.lagentlefactory.com/","txt":"Vêtements made in France","wiki":null,"tel":"0359393250","postCode":59100,"city":"Roubaix","addr":"117 Rue Montgolfier","cat":"H","email":"X"}
,{"lat":50.681827,"lng":3.043034,"name":"talents de ferme","web":"http://www.talentsdefermes.fr","txt":"regroupement de producteurs\nproduits laitiers, viande, boulangerie","wiki":null,"tel":"","postCode":59118,"city":"Wambrechies","addr":" Avenue de l'Abbé Pierre ","cat":"A","email":""}
,{"lat":50.040673,"lng":4.103741,"name":"le verger biologique d'ohain","web":"","txt":"Le Verger cultive fruits et légumes et confectionne avec ses récoltes divers produits dérivés.","wiki":null,"tel":"0327602219","postCode":59132,"city":"Ohain","addr":" 15 rue du Gros Tilleul","cat":"A","email":""}
,{"lat":50.998647,"lng":2.35389,"name":"EARL des Fraisiers","web":"","txt":"","wiki":null,"tel":"","postCode":59180,"city":"Cappelle-la-Grande","addr":"Denis HEMBERT","cat":"A","email":""}
,{"lat":50.16167,"lng":3.427855,"name":"le rucher des bambins","web":"","txt":"Producteur récoltant de miel\nIl nous reste actuellement :\n?\tdu miel de printemps composé de pollens de colza, pissenlit, haies et trèfles. Il est particulièrement crémeux cette année.\n?\tdu miel dit d’été composé de tilleuls. Plus fort au goût avec des notes mentholées.\npage FACEBOOK: le rucher des bambins","wiki":null,"tel":"0679830716","postCode":59214,"city":"Quiévy","addr":" 47 Rue Jean Baptiste LEBAS","cat":"A","email":"david.leclere@laposte.net"}
,{"lat":50.641329,"lng":2.722219,"name":"brasserie exiguë","web":"https://www.brasserieExigue.fr","txt":"La brasserie Exiguë est une brasserie traditionnelle qui laisse la part belle aux saveurs de malt. Une gamme permanente de 5 bières (blonde, rousse, blanche, triple et stout) est complétée régulièrement par des bières éphémères.","wiki":null,"tel":"0622118318","postCode":59253,"city":"La Gorgue","addr":" 91 bis rue du général de Gaulle 59253 La Gorgue 5","cat":"A","email":"contact@brasserieexigue.fr"}
,{"lat":50.68596414911959,"lng":3.0330583017688344,"name":"Lemahieu","web":"https://www.lemahieu.com/","txt":"Fabricant et vente de vêtements Made in France","wiki":null,"tel":null,"postCode":59350,"city":"Saint-André-lez-Lille","addr":"480 Av. du Maréchal de Lattre de Tassigny,","cat":"H","email":"X"}
,{"lat":50.659555,"lng":3.22939,"name":"ferme cimetiere","web":"https://www.facebook.com/fermeCIMETIERE","txt":"Exploitation familiale de 15 ha orientée vente directe\nproduction maraîchère(environ 30 légumes de saison) laitière (transformation de toute la production) Spécialité Fraise de pleine Terre et Endive de pleine Terre.","wiki":null,"tel":"0633268698","postCode":59390,"city":"Toufflers","addr":" 35 rue des Champs","cat":"A","email":"denis.fermecimetiere@sfr.fr"}
,{"lat":50.123091,"lng":3.279024,"name":"le rucher de leaya","web":"https://www.vente-achat-miel-bio.com","txt":"Apiculteurs depuis 2017 à Marcoing près de Cambrai dans le Nord Pas-de-Calais en Hauts-de-France, nous pratiquons une agriculture paysanne, éthique et écologique. Certifiés Agriculture Biologique depuis juin 2019, nous proposons une large gamme de produits issus de notre production apicole (miel bio, produits transformés et produits cosmétiques respectueux de l’environnement), ainsi que différentes formations (découverte du monde des abeilles, initiation, formation à l’apiculture, ateliers de formation dédiés à la Slow Cosmétique, à l’Api-Aromathérapie et à la saponification à froid). \nNous vous offrons aussi la possibilité de contribuer à la sauvegarde des abeilles en parrainant une ruche. \nSi l'aventure vous intéresse, contactez-nous !","wiki":null,"tel":"0680510056","postCode":59400,"city":"Séranvillers-Forenville","addr":" 48 Bis Grand Rue","cat":"A","email":"lerucherdeleaya@gmail.com"}
,{"lat":50.539722,"lng":2.875728,"name":"romuald botte","web":"","txt":"Maraîcher horticulteur et aviculteur dans la ville d'Hantay.","wiki":null,"tel":"0663052392","postCode":59496,"city":"Hantay","addr":" 22 rue Roger Salengro","cat":"A","email":""}
,{"lat":50.950851,"lng":2.192365,"name":"Le Jardin du Penher","web":"","txt":"Maraîcher","wiki":null,"tel":"","postCode":59630,"city":"Bourbourg","addr":"Anthony PUREN","cat":"A","email":""}
,{"lat":50.645059,"lng":3.05939,"name":"ferme de la croix saint claude","web":"https://fermedelacroixsaintclaude.fr","txt":"AU CŒUR DU VIEUX LILLE, VOTRE PANIER DE FRUITS ET LÉGUMES DE SAISON EN DIRECT DE LA FERME CHAQUE SEMAINE\n\nLIBRE ET SOUPLE\n- Sans contrainte d’abonnement,\n- Choisissez votre rythme (semaine, quinzaine, …),\n- Sautez une semaine (congés, événements,…),\n- Changez de taille de panier,\n- Echangez un produit du panier de la semaine,\n- Composez votre panier sur place avec les produits de la semaine.\n\nSI BON, SI FRAIS !\n\nSimple et rapide\npar une simple réponse par sms\nDes produits variés\n- Au minimum 4 à 5 produits différents\n- 2 à 3 produits changent chaque semaine.\n\nProximité et Convivialité\nVenez chercher votre panier à la maison, 19 rue de Jemmapes, et échangez autour d’un café le samedi matin de 9h00 à 13h00 et le mercredi de 18h00 à 19h30.\n\nNOUS VOUS PROPOSONS CHAQUE SEMAINE UN PANIER\nDE FRUITS ET LÉGUMES DE SAISON.\nLes produits sont cueillis ou arrachés à maturité. La plupart des produits sont récoltés le vendredi, pour vous être livrés le samedi matin.\n\nNous vous proposons 4 types de paniers :\nle Mini (1 pers.","wiki":null,"tel":"0678919544","postCode":59800,"city":"Lille","addr":" 19 de la rue de Jemmapes, 59800 Lille","cat":"A","email":"FERMECROIXSTCLAUDE@ORANGE.FR"}
]}