{"id":73,"producers":[
{"lat":45.573967,"lng":5.888884,"name":"l'atelier de claire et gabriel","web":"https://www.facebook.com/atelierdeclaireetgabriel","txt":"Atelier de confection artisanal de vêtements pour enfants et adultes en coton, lin et chanvre.","wiki":null,"tel":"","postCode":73000,"city":"Chambéry","addr":" 896 route de la Labiaz 73000 CHAMBERY","cat":"A","email":"atelier-de-gabriel@laposte.net"}
,{"lat":45.582112,"lng":5.900322,"name":"petite nature","web":"","txt":"Petite Nature est un producteur de légumes et herbes aromatiques.","wiki":null,"tel":"0479623808","postCode":73000,"city":"Chambéry","addr":" 695 chemin de Charrière Neuve ","cat":"AM","email":"f.vuillermet@free.fr"}
,{"lat":45.575036,"lng":5.943733,"name":"Vuillermet Horticulteur","web":"","txt":"Horticulteur","wiki":null,"tel":"0479333334","postCode":73000,"city":"Bassens","addr":"25 rue Centrale ","cat":"AM","email":""}
,{"lat":45.73176,"lng":5.969654,"name":"pascal gay","web":"","txt":"Cultivateur de fruits et légumes, il confectionne grâce à ses récoltes boissons et autres produits dérivés.","wiki":null,"tel":"0479635219","postCode":73100,"city":"Montcel","addr":" Les Légers ","cat":"AM","email":""}
,{"lat":45.629009,"lng":5.789292,"name":"EARL Axelrad Vuillemin","web":"","txt":"Producteur fermier","wiki":null,"tel":"0479659432","postCode":73170,"city":"Verthemex","addr":"Chef-Lieu  ","cat":"AV","email":""}
,{"lat":45.66348,"lng":6.396779,"name":"Gontier Horticulture","web":"","txt":"Pépiniériste","wiki":null,"tel":"0479104200","postCode":73200,"city":"Albertville","addr":"70 chemin des Maraîchers ","cat":"P","email":""}
,{"lat":45.478396,"lng":6.270544,"name":"délices de savons","web":"http://www.delices-de-savons.fr/","txt":"Fabrication de savons bios à base d'huiles essentielles avec la méthode de saponification à froid.","wiki":null,"tel":"0479361311","postCode":73220,"city":"Saint-Alban-d'Hurtières","addr":" Le Mollard 73220 Saint-Alban-des-Hurtières ","cat":"P","email":""}
,{"lat":45.554614,"lng":6.129401,"name":"Le Jardin d'Arclusaz","web":"","txt":"Horticulteur","wiki":null,"tel":"0479362858","postCode":73250,"city":"Saint-Jean-de-la-Porte","addr":"Le Carnavet ","cat":"P","email":""}
,{"lat":45.919938,"lng":5.844519,"name":"les ruchers de stephanie","web":"","txt":"Apicultrice, productrice du miel, Gelée Royale, Pain d'epices, bonbons au miel, Nougat, pollen, propolis, et autres produits de la ruche. Je suis certifié en Agriculture Biologique.","wiki":null,"tel":"0685810186","postCode":73310,"city":"Motz","addr":" 368 Route des vignes","cat":"AA","email":""}
,{"lat":45.816486,"lng":5.852628,"name":"l'etoile verte","web":"http://spiruline-de-savoie.com/spip.php?article5","txt":"L'Etoile Verte est spécialisé dans la production de la Spiruline de Savoie.","wiki":null,"tel":"0607102499","postCode":73310,"city":"Chindrieux","addr":" Chef Lieu 73310 Motz ","cat":"AO","email":"bienvenue@spiruline-de-savoie.com"}
,{"lat":45.537114,"lng":5.674948,"name":"Abeille étoile","web":"","txt":"Apiculteur /  Agriculteur","wiki":null,"tel":"0767440025","postCode":73330,"city":"Le Pont-de-Beauvoisin","addr":"22 rue du feaubours d'aiguenoire 73330 Pont de beauvoisin","cat":"AA","email":""}
,{"lat":45.489972,"lng":5.753665,"name":"ferme de la berthe","web":"http://fermedelaberthe.fr","txt":"Maraîchage diversifié biologique sans mécanisation sur planches permanentes\nen altitude. Culture toute l'année. Rotation de culture, haies fleuries ainsi que  passe pieds enherbés.","wiki":null,"tel":"0782410318","postCode":73360,"city":"Saint-Franc","addr":" La Berthe","cat":"AM","email":""}
,{"lat":45.54108,"lng":6.227547,"name":"marycat","web":"","txt":"je vend des confitures maison avec mes fruits et acheter au marché\nje vais a partir d'avril faire des compotes et des crèmes de fruits \n(types crème framboise, cassis....)\npour la vente a domicile de préférence en fin de journée\nplus tard sur les marché.\ntel: 0674535030","wiki":null,"tel":"0674535030","postCode":73390,"city":"Chamoux-sur-Gelon","addr":" les clos 3ème Berres ","cat":"AF","email":"catherine.bournay@orange.fr"}
,{"lat":45.549521,"lng":6.174191,"name":"les punchs d'elsa","web":"https://www.punch-elsa.com","txt":"LES Punchs D'Esa sont élaborés en Savoie\nProduction artisanale de Punchs savoureux à 17° d’alcool, \nà base  de fruits sélectionnés et traités manuellement par mes soins ,sans colorants ni conservateurs.","wiki":null,"tel":"","postCode":73390,"city":"Châteauneuf","addr":" Le Villaret","cat":"AF","email":"paradistropikal@gmail.com"}
,{"lat":45.557044,"lng":6.202876,"name":"Le Jardin d'Iris","web":"","txt":"Agriculteur","wiki":null,"tel":"0614926468","postCode":73390,"city":"Chamousset","addr":"Domaine de la Lilette ","cat":"AM","email":""}
,{"lat":45.737066,"lng":6.428777,"name":"La Ferme Lombricole des Savoie","web":"","txt":"Lombriculteur","wiki":null,"tel":"0675246231","postCode":73400,"city":"Ugine","addr":"Lieu-dit L'Isle ","cat":"AM","email":""}
,{"lat":45.400616,"lng":6.503668,"name":"cosmétiques petit péché mignon","web":"http://www.petit-peche-mignon.com","txt":"Cosmétiques Naturels & Frais fabriqués à la main en Savoie à partir d'ingrédients issus de l'Agriculture Biologique et du Commerce Équitable.","wiki":null,"tel":"","postCode":73440,"city":"Les Belleville","addr":" Béranger 73440 Saint-Martin-de-Belleville ","cat":"A","email":"contact.ppm.cosmetiques@gmail.com"}
,{"lat":45.513124,"lng":5.745373,"name":"abeille étoile","web":"https://abeille-etoile.fr","txt":"Miels de Savoie et d'Isère, Montagne et plaine\nConfitures et sirops bio","wiki":null,"tel":"0767440025","postCode":73520,"city":"Saint-Béron","addr":" 191Chemin d'Attignat Oncin 73520 St Béron ","cat":"AA","email":""}
,{"lat":45.677105,"lng":6.126884,"name":"La chèvrerie des Tannes et Glacières","web":"","txt":"Eleveur de chèvres","wiki":null,"tel":"0672942041","postCode":73630,"city":"Le Châtelard","addr":"Le Martinet ","cat":"AFO","email":""}
,{"lat":45.419054,"lng":5.854048,"name":"Entremonts et abeilles","web":"","txt":"Apiculteur","wiki":null,"tel":"0663159550","postCode":73670,"city":"Saint-Pierre-d'Entremont","addr":"25 impasse du novelay, lotissement le pré du comte 73670 saint pierre d'entremont","cat":"AA","email":""}
,{"lat":45.530223,"lng":6.136704,"name":"spiruline des alpes","web":"http://spiruline-des-alpes.fr","txt":"Producteur de spiruline certifiée agriculture biologique.\nProduite en brindilles, je propose des visites pédagogiques sur ma ferme le samedi matin de 9h à midi et le mercredi de 16h à 18h. Vous pouvez aussi venir sur rdv. \nLa spiruline est un micro-organisme aquatique consommé pour sa riche nutritionnelle.","wiki":null,"tel":"0643542272","postCode":73800,"city":"Coise-Saint-Jean-Pied-Gauthier","addr":" Les Frasses 85 Impasse des Figuettes","cat":"AO","email":"brunochatelard@spiruline-des-alpes.fr"}
,{"lat":45.538795,"lng":6.106103,"name":"maurice pichon","web":"","txt":"Maraîcher horticulteur, il propose des plants, vins et spiritueux.","wiki":null,"tel":"0479841380","postCode":73800,"city":"Cruet","addr":" La Baraterie","cat":"AB","email":""}
]}