{"id":56,"producers":[
{"lat":48.115467,"lng":-3.716563,"name":"La Jumenterie des Crinières Blanches","web":"","txt":"agricultrice eleveuse équin","wiki":null,"tel":"0611354142","postCode":56110,"city":"Roudouallec","addr":"lieu dit KENERDU 56110 ROUDOUALLEC","cat":"AF","email":""}
,{"lat":47.504284,"lng":-2.321716,"name":"le pain de sophie","web":"","txt":"Fabrication artisanale de pains bio au levain naturel et cuits au feu de bois. Toutes les matières premières sont issues de l'agriculture biologique","wiki":null,"tel":"","postCode":56130,"city":"Férel","addr":" Lizerbignac","cat":"AC","email":"lepaindesophie@laposte.net"}
,{"lat":47.782601,"lng":-2.425136,"name":"Ferme de la Ville Aly","web":"","txt":"Eleveur","wiki":null,"tel":"0297733359","postCode":56140,"city":"Bohal","addr":"La Ville Aly ","cat":"AV","email":""}
,{"lat":47.897597,"lng":-3.009319,"name":"Le Verger de Baud","web":"","txt":"Arboriculteur","wiki":null,"tel":"0618058304","postCode":56150,"city":"Baud","addr":"ZI Le Dresseve ","cat":"AM","email":""}
,{"lat":48.061199,"lng":-3.294562,"name":"gaec de namohic (kerourin)","web":"https://www.facebook.com/GaecdeNamohic/","txt":"Héloïse et Cyril ont repris la ferme de Kerourin (qui existe depuis 2005)","wiki":null,"tel":"0618186915","postCode":56160,"city":"Ploërdut","addr":" Kerourin","cat":"A","email":"gaecdenamohic@gmail.com"}
,{"lat":48.062523,"lng":-3.314635,"name":"la malvoisine","web":"https://la-malvoisine.fr/","txt":"Alain Réty est installé depuis 2019 au hameau Malvoisin","wiki":null,"tel":"0781659038","postCode":56160,"city":"Ploërdut","addr":" Malvoisin","cat":"A","email":"cidrerie@la-malvoisine.fr"}
,{"lat":48.122693,"lng":-3.297534,"name":"terre du milieu","web":"https://www.facebook.com/St%C3%A9phane-Le-Pabic-296738187916860/","txt":"Stéphane Le Pabic est installé depuis 2005\nIl cultive actuellement des tomates et petits fruits\nDelphine Lamotte sa compagne est installée en tant que céramiste","wiki":null,"tel":"0297289983","postCode":56160,"city":"Ploërdut","addr":" Roscato","cat":"AF","email":"dahuyaoul@gmail.com"}
,{"lat":48.094714,"lng":-3.237099,"name":"ferme du lannic","web":"","txt":"Cédric Lhermitte est installé depuis 2018\nil cultive des céréales pour faire ses propres farines locales","wiki":null,"tel":"0664316861","postCode":56160,"city":"Ploërdut","addr":" Le Lannic","cat":"AC","email":"fermedulannic@orange.fr"}
,{"lat":48.076602,"lng":-3.276162,"name":"la fontaine airmeth","web":"http://www.fontaine-airmeth.com","txt":"Thomas et Claire LE GLATIN : Producteurs locaux en apiculture biologique depuis 2017 / chambres d'hôtes écologiques et insolites depuis 2015","wiki":null,"tel":"0954422222","postCode":56160,"city":"Ploërdut","addr":" 4 KERIO","cat":"AA","email":"t.leglatin@fontaine-airmeth.com"}
,{"lat":48.117771,"lng":-3.277922,"name":"EDORAS","web":"","txt":"Elevage de bovins salers","wiki":null,"tel":"0642975859","postCode":56160,"city":"Ploërdut","addr":"LE RUNASQUER 56160 PLOERDUT","cat":"AV","email":""}
,{"lat":47.625849,"lng":-2.405097,"name":"ferme de la maison neuve","web":"https://www.fermedelamaisonneuve.fr/","txt":"La ferme de la maison neuve est une micro-ferme maraîchère de moins d’un hectare. Notre ferme se situe à Questembert dans le Morbihan (56).\n\nNous produisons des légumes, des plantes comestibles, aromatiques et médicinales et souhaitons favoriser les circuits ultras courts, l’objectifs et de vendre nos produits sur les marchés locaux.","wiki":null,"tel":"0662684539","postCode":56230,"city":"Questembert","addr":" La maison neuve","cat":"AM","email":"fermedelamaisonneuve@gmail.com"}
,{"lat":47.956148,"lng":-3.304183,"name":"ona'turel","web":"","txt":"Ona Pena et Yoann  Hervé installés depuis 2014\nLégumes bio en agriculture biologique","wiki":null,"tel":"0645663952","postCode":56240,"city":"Plouay","addr":" Kermouel","cat":"AM","email":"legumes.onaturel@outlook.fr"}
,{"lat":47.865119,"lng":-3.305071,"name":"Kelan Fruits","web":"","txt":"Producteur de fruits rouges","wiki":null,"tel":"0626258260","postCode":56240,"city":"Calan","addr":"Ty Névé Guernalan ","cat":"AF","email":""}
,{"lat":47.673734,"lng":-2.551914,"name":"GAEC de Coet-Navalen","web":"","txt":"agriculteur maraicher","wiki":null,"tel":"0297532329","postCode":56250,"city":"Sulniac","addr":"coet-navalen ","cat":"AM","email":""}
,{"lat":48.054362,"lng":-2.951915,"name":"le lavandier charcutier pontivy","web":"https://www.lelavandier.fr/","txt":"Eleveur charcutier","wiki":null,"tel":"0297252505","postCode":56300,"city":"Pontivy","addr":" Avenue des Cités Unies ","cat":"AG","email":"contact@lelavandier.fr"}
,{"lat":47.940173,"lng":-3.096269,"name":"ferme pemoch buoch","web":"http://fermedepemochbuoch.fr/","txt":"Sandra Bouin s'est installée en 2018 sur une ferme de 49 hectares pour élever des cochons et vaches limousines nourries à l'herbe","wiki":null,"tel":"0615340729","postCode":56310,"city":"Quistinic","addr":" Kersager","cat":"AV","email":"pemochbuoch@gmail.com"}
,{"lat":47.98152,"lng":-3.147313,"name":"fermette de stivel","web":"http://lafermettedestivel.fr/","txt":"Aude Allain et Olivier Passalacqua sont installés depuis","wiki":null,"tel":"0618653759","postCode":56310,"city":"Bubry","addr":" Stivel","cat":"A","email":""}
,{"lat":47.9074,"lng":-3.178744,"name":"Louis-Marie Sire","web":"","txt":"Agriculteur","wiki":null,"tel":"0766505983","postCode":56310,"city":"Quistinic","addr":"La Ferme de Kermelin ","cat":"AV","email":""}
,{"lat":47.989373,"lng":-3.158002,"name":"La Ferme Le Beller","web":"","txt":"agriculteur-éleveur-abattoir-transformateur","wiki":null,"tel":"0297517938","postCode":56310,"city":"Bubry","addr":"bieuzen 56310 bubry","cat":"AV","email":""}
,{"lat":47.900771,"lng":-3.145728,"name":"Julie Le Hazif","web":"","txt":"Maraîchère bio","wiki":null,"tel":"0297397949","postCode":56310,"city":"Quistinic","addr":"Kermoël Bihan ","cat":"AM","email":""}
,{"lat":47.955218,"lng":-3.069298,"name":"LES TRUITES BIO DE LA SARRE","web":"","txt":"Pisciculteur","wiki":null,"tel":"0297284592","postCode":56310,"city":"Melrand","addr":"Le Bourdoux 56310 MELRAND","cat":"AP","email":""}
,{"lat":48.041065,"lng":-3.517532,"name":"La Ferme de Rouzen","web":"","txt":"maraicher","wiki":null,"tel":"0650572367","postCode":56320,"city":"Le Faouët","addr":"4 Villeneuve Rouzen ","cat":"AM","email":""}
,{"lat":47.623972,"lng":-2.188059,"name":"gaec les ecureuils","web":"","txt":"Nous produisons et transformons à la ferme des pâtes fraîches aux oeufs frais et des raviolis végétariens.","wiki":null,"tel":"0641100250","postCode":56350,"city":"Allaire","addr":" 131 LE VAL","cat":"AO","email":"gaeclesecureuils@gmail.com"}
,{"lat":47.322115,"lng":-3.168798,"name":"Eric Le Goué","web":"","txt":"Maraîcher, horticulteur et pépiniériste","wiki":null,"tel":"0297313427","postCode":56360,"city":"Bangor","addr":"Parlevant ","cat":"AM","email":""}
,{"lat":47.518034,"lng":-2.68063,"name":"Ferme fromagère de Suscinio","web":"","txt":"Producteur de lait - Fromager","wiki":null,"tel":"0660735912","postCode":56370,"city":"Sarzeau","addr":"Route de Penvins ","cat":"AF","email":""}
,{"lat":47.525836,"lng":-2.624758,"name":"Les Perles de Godec","web":"","txt":"Ostréiculteur","wiki":null,"tel":"0663926858","postCode":56370,"city":"Le Tour-du-Parc","addr":"Rue de Beguero ","cat":"AP","email":""}
,{"lat":47.747441,"lng":-2.767672,"name":"Skoczek Victoria","web":"","txt":"Agricultrice","wiki":null,"tel":"0631130407","postCode":56390,"city":"Locqueltas","addr":"Kerdossen ","cat":"AV","email":""}
,{"lat":47.685873,"lng":-2.955258,"name":"ferme mamie poule","web":"","txt":"De manière plus concrète, nous avons redonné vie à un lieu familial et y avons établis une ferme maraîchère nommée Mamie Poule, un garde-manger 100% fermier. Nous sommes producteur et récoltant, nous choisissons des variétés anciennes adaptées au terroir du Morbihan. \nN'hésitez pas à venir nous découvrir au marché ou directement à la ferme :D","wiki":null,"tel":"0601346022","postCode":56400,"city":"Pluneret","addr":" 25 rue de Lescheby","cat":"AM","email":"jegousser@gmail.com"}
,{"lat":47.725961,"lng":-3.038352,"name":"Demoiselles de Kermelen","web":"","txt":"Fromager","wiki":null,"tel":"0603166526","postCode":56400,"city":"Brech","addr":"Kermelen 56400 Brec'h","cat":"AF","email":""}
,{"lat":47.687401,"lng":-3.017757,"name":"EARL Les Vergers de Kerbellec","web":"","txt":"Arboriculteur","wiki":null,"tel":"0297241661","postCode":56400,"city":"Brech","addr":"Kerbellec ","cat":"AM","email":""}
,{"lat":47.65026,"lng":-3.186131,"name":"graines de saint germain","web":"https://www.saintgermainetcompagnie.fr/","txt":"Nous (Anne-Sophie, Karine, François et Nathalie) produisons des légumes, des œufs, des plantes aromatiques et médicinales et des conserves en Agriculture Biologique. \nNous proposons également de l' accueil pédagogique et de la formation.","wiki":null,"tel":"0972256509","postCode":56410,"city":"Erdeven","addr":" Saint Germain","cat":"AM","email":"grainesdesaintgermain@gmail.com"}
,{"lat":48.056724,"lng":-2.203699,"name":"ferme de la bouvrais","web":"https://rumex.herbesfolles.org","txt":"Sur la ferme de la Bouvrais nous produisons des légumes issus de semences paysannes, et bientôt des produits laitiers de brebis et de vaches bretonnes pie noires.","wiki":null,"tel":"0984459781","postCode":56430,"city":"Concoret","addr":" La Bouvrais","cat":"AM","email":"earldelabouvrais@protonmail.com"}
,{"lat":47.565539,"lng":-2.716637,"name":"GAEC la ferme de lasné","web":"","txt":"agriculteur","wiki":null,"tel":"0637383148","postCode":56450,"city":"Saint-Armel","addr":"11 route du bel air 56450 saint armel","cat":"AV","email":""}
,{"lat":47.569986,"lng":-2.712386,"name":"Biscuiterie des Vénètes","web":"","txt":"Artisan biscuitier","wiki":null,"tel":"0297439124","postCode":56450,"city":"Saint-Armel","addr":"15 route de Saint-Colombier ","cat":"AO","email":""}
,{"lat":47.782449,"lng":-3.434511,"name":"Ferme de La Trinité","web":"","txt":"Producteur laitier","wiki":null,"tel":"0966122445","postCode":56530,"city":"Quéven","addr":"La Trinité ","cat":"AF","email":""}
,{"lat":48.100494,"lng":-3.363143,"name":"ferme ty nevez","web":"https://www.facebook.com/Ferme-avicole-Ty-nevez-106860595243059/","txt":"Marina et Philippe Porché ont repris la ferme en 2022 (la ferme existe depuis 2005)","wiki":null,"tel":"0664335917","postCode":56540,"city":"Saint-Tugdual","addr":" Ty nevez","cat":"AV","email":""}
,{"lat":48.045681,"lng":-3.357474,"name":"la bouquetière","web":"https://www.facebook.com/LaBouquetierdeBretagne/","txt":"Eva Sheperd est installée depuis 2017 et produits ses propres fleurs et plants de manière naturelle et sans pesticides","wiki":null,"tel":"0297000000","postCode":56540,"city":"Saint-Caradec-Trégomel","addr":" Kerguédalen ","cat":"A","email":"kerguedalen56@gmail.com"}
,{"lat":47.689174,"lng":-3.049375,"name":"La Ferme du Park","web":"","txt":"élevage porcins","wiki":null,"tel":"0679085974","postCode":56550,"city":"Locoal-Mendon","addr":"Parc tremenhoarn 56550 Locoal Mendon","cat":"AV","email":""}
,{"lat":48.071838,"lng":-3.624266,"name":"GAEC de Vil Huen","web":"","txt":"Eleveur de porc bio","wiki":null,"tel":"0297341560","postCode":56560,"city":"Guiscriff","addr":"Kernaen ","cat":"AV","email":""}
,{"lat":47.64011,"lng":-3.486889,"name":"L'Escargoterie de l'île de Groix","web":"","txt":"Héliciculteur","wiki":null,"tel":"0297865894","postCode":56590,"city":"Groix","addr":"Kerbus ","cat":"AP","email":""}
,{"lat":47.630315,"lng":-2.832427,"name":"GAEC de la ferme de l'étang","web":"","txt":"Eleveur","wiki":null,"tel":"0662857743","postCode":56610,"city":"Arradon","addr":"6 chemin de la ferme de l'étang 56610 ARRADON","cat":"AV","email":""}
,{"lat":47.625791,"lng":-2.86108,"name":"Philippe Le Gauthier","web":"","txt":"Agriculteur","wiki":null,"tel":"0297447821","postCode":56610,"city":"Arradon","addr":"1 Chemin de Talhouarch 56610 ARRADON","cat":"AV","email":""}
,{"lat":47.827557,"lng":-3.407751,"name":"GAEC Nevannen","web":"","txt":"Producteur laitier","wiki":null,"tel":"0663403347","postCode":56620,"city":"Pont-Scorff","addr":"Mane Guennec ","cat":"AF","email":""}
,{"lat":47.844843,"lng":-3.301458,"name":"ÉlémenTerre","web":"","txt":"Producteur d'amendements organique et minéral pour l'agriculture biologique.","wiki":null,"tel":"0661058301","postCode":56650,"city":"Inzinzac-Lochrist","addr":"Kéroman ","cat":"AO","email":""}
,{"lat":47.847085,"lng":-2.712187,"name":"gaec l'abeille de lanvaux","web":"http://abeilledelanvaux.fr/","txt":"APICULTEUR","wiki":null,"tel":"0621573579","postCode":56660,"city":"Saint-Jean-Brévelay","addr":"26 rue du govéro 56660 SAINT JEAN-BREVELAY","cat":"AA","email":"abeilledelanvaux@gmail.com"}
,{"lat":47.675699,"lng":-3.220554,"name":"LES PANIERS DE LA RIA","web":"","txt":"Maraicher","wiki":null,"tel":"0688182645","postCode":56680,"city":"Plouhinec","addr":"6 Rue de Cordanguy 56680 PLOUHINEC","cat":"AM","email":""}
,{"lat":47.716337,"lng":-3.272151,"name":"GAEC de Saint Sauveur","web":"","txt":"bovins laitiers","wiki":null,"tel":"0642253156","postCode":56700,"city":"Merlevenez","addr":"Lieu dit Saint Sauveur 56700 MERLEVENEZ","cat":"AF","email":""}
,{"lat":47.77559,"lng":-3.276246,"name":"Germain Mahéo","web":"","txt":"Maraîcher","wiki":null,"tel":"0652140873","postCode":56700,"city":"Kervignac","addr":"Le Hingair ","cat":"AM","email":""}
,{"lat":47.913521,"lng":-2.397652,"name":"ferme de gourhert","web":"http://www.fermedegourhert.fr","txt":"Maraîchers, éleveurs de brebis et de vaches ainsi que de poules pondeuses, nous proposons nos produits a la vente a la ferme ainsi que ce de plus de 40 collèges principalement locaux.","wiki":null,"tel":"0632885368","postCode":56800,"city":"Ploërmel","addr":" 4 gourhert 56800 Ploërmel ","cat":"AM","email":"ferme-de-gourhert@orange.fr"}
,{"lat":48.058192,"lng":-2.869628,"name":"Régis Le Moullac","web":"","txt":"Agriculteur","wiki":null,"tel":"0682179023","postCode":56920,"city":"Noyal-Pontivy","addr":"Belle Chère ","cat":"AC","email":""}
,{"lat":48.115719,"lng":-2.792666,"name":"EARL de la Cavalerie","web":"","txt":"Producteur de denrées alimentaires","wiki":null,"tel":"0633692781","postCode":56920,"city":"Saint-Gonnery","addr":"La Cavalerie ","cat":"AO","email":""}
,{"lat":47.945004,"lng":-3.016113,"name":"le domaine de dana","web":"http://www.domainededana.com","txt":"Producteur de PORC MANGALITZA en plein air.\nValorisation de notre viande à travers la vente directe, snack à la ferme sur réservation et food truck","wiki":null,"tel":"0762468418","postCode":56930,"city":"Pluméliau-Bieuzy","addr":" KERIDAN 56930 Pluméliau ","cat":"AV","email":"domainededana@gmail.com"}
]}