{"id":75,"producers":[
{"lat":48.84821,"lng":2.354214,"name":"novantatré","web":"https://novantatre.fr","txt":"Le panettone, brioche italienne aux raisins secs et fruits confits est une brioche au moelleux inégalable, à la saveur à la fois surprenante, douce et gourmande. Sa fabrication requiert patience, savoir-faire et passion. \n\nC’est cette passion pour le panettone, qui conduit Emmanuel, à l’origine du projet Novantatré, à sillonner les routes de France et d’Italie pour apprendre les nombreuses étapes de fabrication d’un panettone artisanal, au levain naturel. \n\nAprès plusieurs mois de tests, de rencontres, d’échanges, de dégustations, l’envie croit de réaliser artisanalement un panettone en France qui aurait ainsi une fraicheur, un moelleux et une saveur incomparables.\n\nNovantatre?, ce sont des ingre?dients biologiques de qualite?, un pe?trissage lent, deux jours de fermentation, une cuisson contro?le?e manuellement pour atteindre une tempe?rature ide?ale de novantatre? gradi (93°C).\n\nNovantatre? propose aujourd’hui une gamme de produits brioche?s, biologiques et 100 % levain ainsi que des biscuits d’artisan.","wiki":null,"tel":"0652948693","postCode":75005,"city":"Paris","addr":" 28 Rue des Fossés Saint-Bernard, 75005 Paris 750","cat":"AF","email":"emmanuel@novantatre.fr","suspect":0}
,{"lat":48.879849,"lng":2.321821,"name":"Les Colis du Boucher","web":"","txt":"","wiki":null,"tel":"0613100007","postCode":75008,"city":"Paris","addr":"58 rue de Rome  ","cat":"A","email":"","suspect":0}
,{"lat":48.875642,"lng":2.342328,"name":"IDEM","web":"","txt":"Diamantaire","wiki":null,"tel":"0610018110","postCode":75009,"city":"Paris","addr":"1, rue de chateaudun, 75009 PARIS","cat":"OB","email":"alain.r.guyot@wanadoo.fr","suspect":0}
,{"lat":48.850539,"lng":2.380668,"name":"ATELIER DE RESTAURATION DE CÉRAMIQUES","web":"http://restauration-ceramiques.fr","txt":" Restaurateur de faïence et de porcelaine","wiki":null,"tel":"0683293915","postCode":75011,"city":"Paris","addr":"173, rue du Faubourg Saint-Antoine, ","cat":"OE","email":"sophie.muguet@restauration-ceramiques.fr","suspect":0}
,{"lat":48.847523,"lng":2.373353,"name":"A L'ATELIER","web":"http://www.a-latelier.fr","txt":" Restaurateur de tableaux","wiki":null,"tel":"0660948263","postCode":75012,"city":"Paris","addr":"28, rue traversière, ","cat":"OD","email":"a_l_atelier@yahoo.fr","suspect":0}
,{"lat":48.852311,"lng":2.295353,"name":"le retour à la terre","web":"http://leretouralaterre.fr/","txt":"Le Retour à la Terre propose divers variétés de fruits et légumes dans ses magasins Rive Gauche et Rive Droite.","wiki":null,"tel":"","postCode":75015,"city":"Paris","addr":" 22 rue Edgar Faure 750","cat":"AM","email":"","suspect":0}
,{"lat":48.879105,"lng":2.287906,"name":"PHELIPPEAU - TAPISSIER","web":"http://www.phelippeautapissier.com","txt":" Tapissier d'ameublement/tapissier décorateur","wiki":null,"tel":"0145741975","postCode":75017,"city":"Paris","addr":"13 rue Labie, ","cat":"OE","email":"phelippeau@phelippeautapissier.com","suspect":0}
,{"lat":48.861818,"lng":2.401588,"name":"Le Paysan Urbain","web":"","txt":"","wiki":null,"tel":"0660928651","postCode":75020,"city":"Paris","addr":"14 rue Stendhal ","cat":"A","email":"","suspect":0}
,{"lat":48.857115,"lng":2.393881,"name":"Le Producteur Local","web":"https://leproducteurlocal.fr/","txt":"","wiki":null,"tel":"0143565751","postCode":75020,"city":"Paris","addr":"168 Boulevard de Charonne ","cat":"AG","email":"","suspect":0}
]}