{"id":39,"producers":[
{"lat":46.680209,"lng":5.578511,"name":"re-bon","web":"https://rebon-antigaspi.fr","txt":"Re-Bon est une start up engagée contre le gaspillage alimentaire et pour le goût. Re-Bon donne une deuxième vie aux pains invendus des boulangeries artisanales sous forme de produits apéritifs. \n\nCréé en Juin 2021, le développement de Re-Bon passe aujourd’hui par le lancement de notre atelier de production à Lons-le-Saunier courant Janvier 2023. Actuellement, pour mener à bien notre mission, nous utilisons un atelier prêté par l’un de nos boulangers partenaires  \n\nNotre entreprise repose sur trois valeurs clefs : simple, gourmand et local.\nL’ADN de Re-Bon s’articule autour de quatre fondamentaux, la lutte contre le gaspillage alimentaire, l'ancrage territorial, la valorisation d’un savoir-faire français et l’insertion par l’activité économique. \n\nEn effet chaque semaine, nous collectons dans notre réseau de 20 boulangeries partenaires, les pains invendus afin de leur donner une seconde vie à destination de la consommation humaine.\n\nFaire du bien à la planète en prenant l'apéro !\nRe-Bon s'inscrit dans une dyna","wiki":null,"tel":"0677658635","postCode":39000,"city":"Lons-le-Saunier","addr":" 150 rue Edouard Branly","cat":"A","email":"emeric@rebon-antigaspi.fr"}
,{"lat":46.875887,"lng":5.962872,"name":"la ferme du grand pas","web":"","txt":"Vente de viande de porc bœuf et veau\nProposée sous forme de colis","wiki":null,"tel":"0672975087","postCode":39110,"city":"Montmarlon","addr":" Route de montmarlon 39110 Lemuy ","cat":"A","email":"roussillonsebastien2104@gmail.com"}
,{"lat":46.938226,"lng":5.336677,"name":"lady b nature","web":"","txt":"Bougies et Fondants  Végétales à la cire de soja 100 % et aux fragrances de Grasses. Bougies bijoux mèche en bois.","wiki":null,"tel":"","postCode":39120,"city":"Petit-Noir","addr":" 12 rue du stade","cat":"A","email":"beadiabless@orange.fr"}
,{"lat":46.945632,"lng":5.508544,"name":"la charrette bleue","web":"http://contact@lacharrettebleue.com","txt":"La Charrette Bleue produit des savons et cosmétiques naturels et biologiques au lait d'ânesse.","wiki":null,"tel":"0384715532","postCode":39120,"city":"Le Deschaux","addr":" 6 chemin du Château ","cat":"A","email":"lacharrettebleue2@wanadoo.fr"}
,{"lat":46.607363,"lng":5.473217,"name":"vin wicky gilles","web":"","txt":"Côtes du jura VIN en AB\nchardonnay savagnin crémant mac vin vin de paille","wiki":null,"tel":"0384251096","postCode":39190,"city":"Sainte-Agnès","addr":" 13 rue principale","cat":"A","email":"gilles.wicky@wanadoo.fr"}
,{"lat":46.598307,"lng":5.495989,"name":"les jardins de grusse","web":"","txt":"Les Jardins de Grusse produisent des légumes de saison et fruits rouges de saison.","wiki":null,"tel":"0384250812","postCode":39190,"city":"Val-Sonnette","addr":" 5 En Séchon 39190 Grusse ","cat":"A","email":""}
,{"lat":46.881991,"lng":5.460142,"name":"le spirulinier comtois","web":"https://www.spiruliniercomtois      (actif à partir du 13 décembre 2019)","txt":"Producteur de Spiruline dans le Jura depuis Aout 2019, je suis installé à Sergenaux. Je produis , conditionne et commercialise une spiruline de qualité. Aucun produits phyto n'est utilisé pour la production et aucun déchets n'est produit. Je vous invite à visiter l'exploitation et déguster la production. La spiruline est commercialisée en sachets de 100 g de paillettes.","wiki":null,"tel":"0767095694","postCode":39230,"city":"Sergenaux","addr":" 1 rue du 19 mars 1962","cat":"A","email":"lefebvrefrederic63@gmail.com"}
,{"lat":46.377744,"lng":5.696366,"name":"la petite ferme de chanon","web":"https://lapetitefermedechanon.com/","txt":"La petite ferme de Chanon à une “petite” particularité : Elle travaille très majoritairement grâce à la traction animale … de façon moderne !\n\nCe que nous produisons :\n- Légumes de plein champ (de mi juin à fin octobre) : Salade coupée et lavée, betteraves, pommes de terre, carottes, fenouils, courgettes, courges, etc …\n- Viande bovine croisé Vosgien et pure race Galloway en caissette de 5 ou 10 kg","wiki":null,"tel":"0651818422","postCode":39260,"city":"Martigna","addr":" chanon","cat":"A","email":"ujakame@gmail.com"}
,{"lat":46.570866,"lng":5.526977,"name":"la ferme des cabrotins","web":"https://www.la-ferme-des-cabrotins.fr/","txt":"Fromages de chèvres (frais, demi secs, secs, tommes, reblotin, munstichèvre, camembrotin, fiesta chèvre...), oeufs plein air, porcs fermier","wiki":null,"tel":"0608033048","postCode":39270,"city":"La Chailleuse","addr":" 129 chemin de la fontaine 39270 Arthenas ","cat":"A","email":"lafermedescabrotins@outlook.fr"}
,{"lat":46.470786,"lng":5.526055,"name":"les jardins de suzon","web":"","txt":"Aux Jardins de Suzon, nous cultivons des légumes de saison bio dans un endroit préservé au coeur de la petite montagne, entre bois, rivière et prés. Nous pratiquons une agriculture familiale, à échelle humaine ; nos légumes sont récoltés manuellement la veille de leur mise en vente, vous garantissant fraîcheur et saveur.","wiki":null,"tel":"0384439472","postCode":39270,"city":"Nancuise","addr":" 1 Impasse du moulin","cat":"A","email":""}
,{"lat":46.544667,"lng":5.592968,"name":"savonnerie le prieuré de saint-georges","web":"","txt":"Fabrication de savons et cosmétiques bio entièrement fabriqués à la main à base de lait de jument ou d'ânesse, d’huiles végétales, de beurre de karité et d’huiles essentielles.","wiki":null,"tel":"0384485038","postCode":39270,"city":"Présilly","addr":" 1 Hameau de Saint-Georges","cat":"A","email":"savonneriesaintgeorges@orange.fr"}
,{"lat":47.247316,"lng":5.536389,"name":"al'ancienne","web":"https://www.facebook.com/ArticlesCuirCreationsMain","txt":"Créations Artisanales en CUIR / \nRéparations et Fabrications sur mesure / \nCouture Main au Point Sellier /\n\n/ Sacs et petite maroquinerie, portes clefs divers, bijoux, étuis (à lunettes/tabac/couteaux), accessoires animaux....","wiki":null,"tel":"0680008326","postCode":39290,"city":"Dammartin-Marpain","addr":" 2 chemin de Montmirey","cat":"A","email":""}
,{"lat":46.7797145,"lng":5.93671282,"name":"JeuJura","web":"http://www.jeujura.fr/","txt":"Fabrication de jeux en bois local (hêtre essentiellement)","wiki":null,"tel":"0384531040","postCode":39300,"city":"Saint-Germain-en-Montagne","addr":"6 Rue des Tilleuls","cat":"J","email":null}
,{"lat":46.531762,"lng":6.024736,"name":"Conserverie Betiko","web":"","txt":"Conserverie artisanale","wiki":null,"tel":"0559205014","postCode":39400,"city":"Hauts de Bienne","addr":"ZI des Joncaux 64700 Hendaye","cat":"A","email":""}
,{"lat":47.028476,"lng":5.338104,"name":"élevage de la plaine","web":"","txt":"particulier élevage de poule pondeuse  déclaré 1fr3973vente d'œuf non calibré\npoule élevé en pleine air livraison possible avec un minimum de commende \ntarif 7.50€le plateau de 30 œufs et 3€ les 12\nréservation au 06.62.80.18.62 livraison: dole, Tavaux et alentour","wiki":null,"tel":"0662801862","postCode":39410,"city":"Saint-Aubin","addr":" 9 rue auguste couvreur","cat":"A","email":"bouchardarnaud39@orange.fr"}
,{"lat":46.645924,"lng":5.54193,"name":"brasserie pico-nino","web":"","txt":"Production de bières en 33cL et 75cL : une blonde, deux ambrées, une brune, une bière au Seigle, une APA et une \"saison\"...","wiki":null,"tel":"","postCode":39570,"city":"Macornay","addr":" 67 Route de Bellecombe","cat":"A","email":"brasserie.piconino@gmail.com"}
,{"lat":46.638947,"lng":5.601041,"name":"ferme d'en fremier","web":"","txt":"La Ferme d'en Fremier élève des bovins et confectionne des produits laitiers, boissons et autres produits dérivés.","wiki":null,"tel":"0384243771","postCode":39570,"city":"Revigny","addr":" Ferme d'en Fremier Chemin Saugette","cat":"A","email":""}
,{"lat":47.004174,"lng":5.827273,"name":"happyjuraculteur","web":"","txt":"Apiculteur, producteur de Gelée Royale et propolis certifié en agriculture biologique à Port-Lesney. Nous proposons une gamme de miel Acacia, Forêt et Sapin 250g, 500g et Kg","wiki":null,"tel":"0685314855","postCode":39600,"city":"Port-Lesney","addr":" 8 impasse bellevue","cat":"A","email":"arnauldbaert@icloud.com"}
,{"lat":47.152761,"lng":5.668102,"name":"la ferme de l'iserole","web":"https://producteurs.opendistrib.net/lafermedeliserole","txt":"ferme maraichère et semencière bio\nvente de légumes, plants potagers et semences potagères en direct ou\nsur https://producteurs.opendistrib.net/lafermedeliserole","wiki":null,"tel":"","postCode":39700,"city":"Orchamps","addr":" ferme de l'iserole, zone artisanale","cat":"A","email":"lafermedeliserole@riseup.net"}
,{"lat":47.180343,"lng":5.580488,"name":"becos[e]","web":"http://www.becoselesite.com","txt":"Chez BeCos[E], nous fabriquons à la main des savons à froid et shampoings solides super doux. Nous proposons également de visiter la savonnerie pour découvrir comment nous travaillons.","wiki":null,"tel":"0964187329","postCode":39700,"city":"Vriange","addr":" 6, rue du quart","cat":"A","email":"contact@becoselesite.com"}
,{"lat":46.919753,"lng":5.666015,"name":"le rucher du djé","web":"https://www.miel-jura.com","txt":"Nous sommes une jeune exploitation en apiculture, nous vous ouvrons nos portes pour découvrir nos produits de la ruche et découvrir avec nous l'apiculture.","wiki":null,"tel":"0973272474","postCode":39800,"city":"Aumont","addr":" la tuilerie","cat":"A","email":"jeremie@miel-jura.com"}
]}