{"id":13,"producers":[
{"lat":43.298447,"lng":5.371607,"name":"la ferme de louise","web":"https://www.lafermedelouise.eu/","txt":"Productrice, cueilleuse, distillatrice et transformatrice de plantes aromatiques et médicinales, entre Gap (la ferme) et Marseille (point de vente).\nLouise vous propose : Lotions, Hydrolats, Huiles de soin, Huiles essentielles, sirop et sel aromatisé.\nCe sont des produits biologiques et certifiés Nature et Progrès.\nPaysanne, elle cultive les plantes dans les Hautes-Alpes au cœur d’un écrin de nature, protégé de la pollution. \nElle pratique aussi la cueillette sauvage, dans des zones naturelles et protégées de la pollution, lui permettant d’élargir sa gamme tout en restant sur une haute exigence de qualité.","wiki":null,"tel":"0611314797","postCode":13002,"city":"Marseille","addr":" 16 Rue du Chevalier Roze 13","cat":"A","email":"louise.coronat@hotmail.fr"}
,{"lat":43.345651,"lng":5.404384,"name":"la ferme de l'etoile","web":"https://www.facebook.com/profile.php?id=100068154728538","txt":"La ferme de l’Étoile est une ferme urbaine située au 111 bd Notre Dame de Santa Cruz, 13014, Marseille. Nous produisons des fruits et légumes biologiques, en agroécologie.\n\nLa ferme est située au pied du massif de l’Étoile, au cœur du quartier de Sainte Marthe, dans un terroir agricole ancien aux qualités écologiques exceptionnelles.\n\nRéseaux sociaux :\nFacebook : La ferme de l’Etoile – Marseille\nInstagram : lafermedeletoile","wiki":null,"tel":"0602445047","postCode":13014,"city":"Marseille","addr":" 111 bd Notre Dame de Santa Cruz, 13014, Marseille 130","cat":"A","email":""}
,{"lat":43.542852,"lng":5.411454,"name":"lou capeou","web":"","txt":"Lou Capeou est une exploitation agricole qui propose fruits et légumes.","wiki":null,"tel":"0442966994","postCode":13090,"city":"Aix-en-Provence","addr":" La Ferme Chemin de l'Aubère ","cat":"A","email":""}
,{"lat":43.422714,"lng":5.531409,"name":"l'ours orange","web":"https://www.loursorange.fr/","txt":"Vente de produits d'épicerie fine (épices, sel, poivres) et vinaigres balsamiques.\nL'Ours Orange est un créateur de saveurs depuis 2006, l'Ours Orange aime à aller chercher des épices aux quatre coins du globe afin de vous les faire découvrir. Ainsi, étant un fervent gastronome, l'Ours Orange parcourt l’Inde, Madagascar, Brésil, Cambodge, Cameroun afin de sélectionner les meilleurs produits et vous les fait partager sur sa boutique en ligne. Depuis quelques année, l'Ours Orange c'est aussi des vinaigres balsamiques précieux, élaborés dans notre laboratoire. Beaucoup d'études, d'essais et de temps ont été necessaire afin de créer des vinaigres hauts de gamme au goût et à la texture inédites. L'Ours Orange vous propose de des coffrets cadeaux, des mélanges d'épices prêts à l'emploi, des vinaigres balsamiques de 12 et 25 ans d'âges, des sels et poivres inédits, des vinaigres de pommes de Modène aux saveurs exquises, des produits bio et frais. A la recherche chaque année de nouveaux goûts, je réalise des mélanges","wiki":null,"tel":"0617823254","postCode":13105,"city":"Mimet","addr":" 361 CARRAIRE DE CARLI","cat":"A","email":"loursorange@gmail.com"}
,{"lat":43.546348,"lng":5.319636,"name":"angela tripmaker-ventre","web":"","txt":"L'exploitation agricole de Ventabren confectionne des produits laitiers.","wiki":null,"tel":"0442289459","postCode":13122,"city":"Ventabren","addr":" Quartier de la Bourdonnière ","cat":"A","email":""}
,{"lat":43.448577,"lng":5.250353,"name":"Anès Beauté","web":"","txt":"Asinerie laitière","wiki":null,"tel":"","postCode":13127,"city":"Vitrolles","addr":"Patrick BALLET","cat":"A","email":""}
,{"lat":43.901065,"lng":4.840932,"name":"Le rucher d'Auriac","web":"","txt":"Apiculteur","wiki":null,"tel":"0674713740","postCode":13160,"city":"Châteaurenard","addr":"410 Chemin du mas d'auriac 13160 CHATEAURENARD","cat":"A","email":""}
,{"lat":43.417013,"lng":5.288412,"name":"la ferme au naturel","web":"","txt":"nous sommes eleveurs de poules pondeuses et d ornements de toutes race et toutes couleurs ;   de tres bons oeufs vous sont proposer en vente libre tous les vendredi et samedi matin 8h a 12h et 15h a 18h ainsi que des legumes de saison","wiki":null,"tel":"0442028226","postCode":13170,"city":"Les Pennes-Mirabeau","addr":" 46 chemin d empallieres 13170","cat":"A","email":"choupy2000@gmail.com"}
,{"lat":43.411243,"lng":5.327724,"name":"le primeur des tilleuls","web":"https://leprimeurdestilleuls.wixsite.com/fruitsetlegumes","txt":"DIRECT PRODUCTEUR sur Les Pennes Mirabeau (13170).\nFruits et légumes de notre production sans aucun traitement.\nProduits annexes (fromages et yaourts fermiers, miels, confitures, tapenades etc...) en partenariat avec nos producteurs locaux / régionaux.","wiki":null,"tel":"0603290883","postCode":13170,"city":"Les Pennes-Mirabeau","addr":" n°1200 avenue du plan de campagne ","cat":"A","email":""}
,{"lat":43.386867,"lng":5.215704,"name":"EURL Michel","web":"","txt":"Maraîcher","wiki":null,"tel":"0680025317","postCode":13180,"city":"Gignac-la-Nerthe","addr":"Avenue Georges Pompidou ","cat":"A","email":""}
,{"lat":43.653998,"lng":4.583693,"name":"SCA Mas Daussan","web":"","txt":"Arboriculteur","wiki":null,"tel":"0490970741","postCode":13200,"city":"Arles","addr":"Clos de Couvet Mas Daussan ","cat":"A","email":""}
,{"lat":43.801401,"lng":4.827266,"name":"fromagerie roumanille","web":"","txt":"UNE ERREUR s'est glissée :  \nNous élevons des chèvres de race Alpines chamoisées et des porcs noirs gascons  en agriculture biologique et NON DES VACHES  !!\nnotre exploitation benéficie de la marque produit du  Parc Naturel Des Alpilles \ntout cela vous garantie que :\n- l' alimentation des animaux est produite sur notre ferme \n- les animaux sortent pacager( manger ) tous les jours à l'extérieur sauf en cas d'intempérie \n- le bien être animal est notre priorité \n- 100% de la production est transformée sur la ferme \n- une grande diversité de produits  , tomme , fromage frais ,crémeux , aromatisés ,glaces au lait de chèvres ...","wiki":null,"tel":"0677390340","postCode":13210,"city":"Saint-Rémy-de-Provence","addr":" 196 petite route des jardins 13210 st remy de provence","cat":"A","email":""}
,{"lat":43.780964,"lng":4.790524,"name":"patrice reynaud","web":"","txt":"Cultivateur de pommes et poires, il conçoit avec ses récoles des jus de fruits.","wiki":null,"tel":"0490954921","postCode":13210,"city":"Saint-Rémy-de-Provence","addr":" Chemin des Veranes","cat":"A","email":""}
,{"lat":43.78299,"lng":4.850171,"name":"les vergers de saint-rémy","web":"","txt":"Production de blé tendre, légumes et romarin dans l'exploitation agricole de Saint-Rémy-de-Provence.","wiki":null,"tel":"0490921896","postCode":13210,"city":"Saint-Rémy-de-Provence","addr":" Mas de Beuil","cat":"A","email":"jm.goret@laposte.net"}
,{"lat":43.783264,"lng":4.796653,"name":"Régine Dumont","web":"","txt":"Producteur bio","wiki":null,"tel":"0699383320","postCode":13210,"city":"Saint-Rémy-de-Provence","addr":"Vieux Chemin d'Arles ","cat":"A","email":""}
,{"lat":43.738397,"lng":5.249937,"name":"Odile Ginoux","web":"","txt":"Arboriculteur","wiki":null,"tel":"0615115501","postCode":13350,"city":"Charleval","addr":"Les Royeres ","cat":"A","email":""}
,{"lat":43.736398,"lng":5.166421,"name":"EARL Le jardin des 1000 Couleurs","web":"","txt":"Agriculteur biologique","wiki":null,"tel":"0661955535","postCode":13370,"city":"Mallemort","addr":"Chemin de Sénas Quartier Gardet ","cat":"A","email":""}
,{"lat":43.713383,"lng":5.189389,"name":"LES CHAMPS DE LA DURANCE","web":"","txt":"AGRICULTEUR","wiki":null,"tel":"0442860369","postCode":13370,"city":"Mallemort","addr":"Pont Royal 13370 mallemort","cat":"A","email":""}
,{"lat":43.290012,"lng":5.567966,"name":"Anne JEANJEAN","web":"","txt":"safranière","wiki":null,"tel":"0782536133","postCode":13400,"city":"Aubagne","addr":"48 rue peypagan ","cat":"A","email":""}
,{"lat":43.318047,"lng":5.593976,"name":"Lespetits champs","web":"","txt":"Maraichage bio diversifié","wiki":null,"tel":"0651608509","postCode":13400,"city":"Aubagne","addr":"2225 Chemin de St Pierre ","cat":"A","email":""}
,{"lat":43.64193,"lng":5.290362,"name":"La ferme de Cabrieres","web":"","txt":"Producteur de fruits rouge  et safran","wiki":null,"tel":"0607129489","postCode":13410,"city":"Lambesc","addr":"480 chemin de cabrieres ","cat":"A","email":""}
,{"lat":43.293914,"lng":5.6263,"name":"Terre de Safran","web":"","txt":"Productrice de safran","wiki":null,"tel":"0675171635","postCode":13420,"city":"Gémenos","addr":"Boulevard du fer à cheval ","cat":"A","email":""}
,{"lat":43.583472,"lng":5.317342,"name":"Le Jardin de Manon","web":"","txt":"Maraîchère","wiki":null,"tel":"0660938217","postCode":13510,"city":"Éguilles","addr":"2310 route de Pélissanne 13510 Eguilles","cat":"A","email":""}
,{"lat":43.447503,"lng":5.682737,"name":"la savonnerie du regagnas","web":"http://www.savon-naturel-regagnas.com","txt":"La Savonnerie du Regagnas produit des cosmétiques naturels et 100% biologiques selon la méthode de saponification à froid.","wiki":null,"tel":"0679220022","postCode":13530,"city":"Trets","addr":" 13 Avenue Mirabeau","cat":"A","email":""}
,{"lat":43.409636,"lng":5.66618,"name":"la maison du miel","web":"http://www.mieldujardindabondance.net/","txt":"La Maison du Miel propose son miel bio et ses produits de la ruche tels que propolis ainsi que ses diverses gourmandises : glaces végétales pur miel, pain d'épices, sablés pur miel et guimauve.","wiki":null,"tel":"0442614809","postCode":13530,"city":"Trets","addr":" Hameau de Kirbon","cat":"A","email":""}
,{"lat":43.549884,"lng":5.198055,"name":"Domaine Du Calabrun","web":"","txt":"Oléiculteur","wiki":null,"tel":"0675003699","postCode":13580,"city":"La Fare-les-Oliviers","addr":"5 avenue du Pavillon 13580 La-Fare-les-Oliviers","cat":"A","email":""}
,{"lat":43.494127,"lng":5.531489,"name":"rayons de provence","web":"","txt":"apiculteur, propose miels et produits de la ruche de sa production:\n\nmiel de romarin, acacia, chataigner,lavande,provence,thym \nbonbons au miel et propolis\npollen\n\nvente d' essaims","wiki":null,"tel":"0661690061","postCode":13590,"city":"Meyreuil","addr":" chemin des tuileries","cat":"A","email":"abeillesetmiel@free.fr"}
,{"lat":43.190183,"lng":5.671189,"name":"Domaine L'OLIVADE","web":"","txt":"Oléiculteur","wiki":null,"tel":"0682183018","postCode":13600,"city":"La Ciotat","addr":"961 CHEMIN SAINT ANTOINE 13600 LA CIOTAT","cat":"A","email":""}
,{"lat":43.820911,"lng":4.976785,"name":"l'art des vergers","web":"","txt":"Producteur de fruits et légumes en agriculture raisonnée.","wiki":null,"tel":"0672440750","postCode":13670,"city":"Saint-Andiol","addr":" 723 D24 13670 Saint andiol","cat":"A","email":""}
,{"lat":43.846578,"lng":4.93067,"name":"SCOP algues provence production","web":"","txt":"producteur de spiruline","wiki":null,"tel":"0670211254","postCode":13670,"city":"Verquières","addr":"105 route nationale 7 13670 Verquieres","cat":"A","email":""}
,{"lat":43.542439,"lng":5.155377,"name":"frédéric de tomasi","web":"http://www.perledeprovence.com/","txt":"L'exploitation agricole de Lançon-Provence produit principalement de l'huile d'olive et des produits de soins et bien-être.","wiki":null,"tel":"0490426952","postCode":13680,"city":"Lançon-Provence","addr":" CD 10 Le Vieux Mas Prés Les Baïsses 1","cat":"A","email":"aurelie@perledeprovence.com"}
,{"lat":43.612253,"lng":5.29472,"name":"Spiform","web":"","txt":"Spirulinier","wiki":null,"tel":"0616552383","postCode":13760,"city":"Saint-Cannat","addr":"Chemin de la Lecque ","cat":"A","email":""}
,{"lat":43.589437,"lng":5.477512,"name":"Liquoristerie de Provence","web":"","txt":"Liquoriste","wiki":null,"tel":"0442549465","postCode":13770,"city":"Venelles","addr":"36 avenue de la Grande Bégude ","cat":"A","email":""}
,{"lat":43.444325,"lng":5.637249,"name":"Terroir de Branguier","web":"","txt":"Oléiculteur","wiki":null,"tel":"0623150179","postCode":13790,"city":"Peynier","addr":"Chemin du Bouquet ","cat":"A","email":""}
,{"lat":43.249337,"lng":5.609187,"name":"Château Barbanau","web":"","txt":"Vigneron","wiki":null,"tel":"0442731460","postCode":13830,"city":"Roquefort-la-Bédoule","addr":"Hameau de Roquefort 13830 Roquefort","cat":"A","email":""}
,{"lat":43.530686,"lng":5.248718,"name":"aleyria cosmétiques","web":"https://www.aleyria.fr","txt":"Savons solides naturels et bio saponifiés à froid à base d'huile d'olive","wiki":null,"tel":"0749502402","postCode":13880,"city":"Velaux","addr":" 9, Avenue de Lombardie","cat":"A","email":"contact@aleyria.fr"}
,{"lat":43.696337,"lng":4.867017,"name":"mas de gourgonnier","web":"http://www.gourgonnier.com/","txt":"Viticulteur et oléiculteur","wiki":null,"tel":"0490475045","postCode":13890,"city":"Mouriès","addr":"Le Destet D78 13890 Mouries","cat":"A","email":"contact@gourgonnier.com"}
,{"lat":43.687351,"lng":4.867538,"name":"Mas de la Tapi","web":"","txt":"Oléiculteur","wiki":null,"tel":"0680360936","postCode":13890,"city":"Mouriès","addr":"63 rue Jean Jaurès ","cat":"A","email":""}
,{"lat":43.801984,"lng":4.922327,"name":"le jardin du papet","web":"","txt":"Maraîcher","wiki":null,"tel":"0699482158","postCode":13940,"city":"Mollégès","addr":"953 Chemin des Martellières 13940 Mollèges","cat":"A","email":""}
,{"lat":43.727947,"lng":4.70057,"name":"earl missiry","web":"","txt":"agriculteur","wiki":null,"tel":"0637817914","postCode":13990,"city":"Fontvieille","addr":"100 Chemin du Pâtis mas Saint Paul 13990 fontvieille","cat":"A","email":""}
,{"lat":43.731148,"lng":4.709533,"name":"Les Oliviers de l'Aqueduc","web":"","txt":"oléiculteur","wiki":null,"tel":"0624332520","postCode":13990,"city":"Fontvieille","addr":"chemin de Bédarrides ","cat":"A","email":""}
,{"lat":43.723721,"lng":4.697821,"name":"EARL LOU CRAVEN","web":"","txt":"Eleveur Producteur","wiki":null,"tel":"0670488504","postCode":13990,"city":"Fontvieille","addr":"770 route de Fontvieille, Mas St Véran 13280 Moules","cat":"A","email":""}
]}