{"id":78,"producers":[
{"lat":48.796109,"lng":2.128875,"name":"Atelier de Restauration de Tableaux","txt":" Restaurateur de tableaux","wiki":null,"postCode":78000,"city":"Versailles","addr":"78, rue d'Anjou, 78000 VERSAILLES","cat":"OD","tel":"0680411024","email":"atelier.danielcheron@free.fr","web":"http://atelier.danielcheron.free.fr","suspect":0}
,{"lat":48.765758,"lng":2.031569,"name":"les bois d'arolles","txt":"Les Bois d'Arolles est une savonnerie artisanale fabricant des savons biologiques, naturels et éthiques.","wiki":null,"postCode":78180,"city":"Montigny-le-Bretonneux","addr":" 33 rue de l'Aubepine","cat":"P","tel":"0615661164","email":"","web":"http://www.lesboisdarolles.com","suspect":0}
,{"lat":48.912449,"lng":2.186859,"name":"texaq","txt":"fournisseur de barbecue Texan: viande fumée et accompagnement. poitrine de boeuf importé des etats unis & epaule de porc francais (servie effiloché) fumés pendant 15-20 heures. Les saucisse et travers de porc fumés pendant 1-5 heures. Vendu en sous vide. Livraison ou Recuperer. Bien pour les evenement. Facile a rechauffer.","wiki":null,"postCode":78420,"city":"Carrières-sur-Seine","addr":" 10 rue des fermettes","cat":"AV","tel":"0665442399","email":"","web":"","suspect":1}
,{"lat":48.769828,"lng":1.875565,"name":"lallaouret frères","txt":"Lallaouret Frères est une exploitation familiale, qui, depuis plus de 50 ans, produit des fruits et légumes, du miel et des plantes aromatiques. Sur place, une partie de la récolte de pomme est transformée en jus de pomme et pétillant de pommes.\n\nLa vente de fait à la ferme, le vendredi après-midi, et du mardi au dimanche, dans différents marchés locaux tels que Cours de Vincennes, Croissy, La Verrière, Maisons Alfort, Plaisir Grignon, Pontchartrain, Puteaux, Saint Quentin en Yvelines.","wiki":null,"postCode":78490,"city":"Le Tremblay-sur-Mauldre","addr":" Chemin Vert","cat":"AM","tel":"0134878591","email":"lallaouret@wanadoo.fr","web":"https://www.lallaouret78.fr/","suspect":0}
,{"lat":48.578632,"lng":1.940945,"name":"BRUNO CHAPERON","txt":" Ebéniste","wiki":null,"postCode":78730,"city":"Saint-Arnoult-en-Yvelines","addr":"9, rue de la Butte de Ravanne ZA de la Fosse aux Chevaux, 78730 Saint Arnoult en Yvelines","cat":"OO","tel":"0684729451","email":"b.chaperon@wanadoo.fr","web":"http://www.brunochaperon.odexpo.com","suspect":0}
,{"lat":48.832216,"lng":1.657485,"name":"les macarons du village","txt":"Les macarons du village vous proposent des macarons et des pâtisseries traditionnelles sur commande. Toute notre production est artisanale et faite maison.","wiki":null,"postCode":78910,"city":"Tacoignières","addr":" 23 rue de tessé ","cat":"AC","tel":"0650412688","email":"contact@lesmacaronsduvillage.Fr","web":"https://www.lesmacaronsduvillage.fr","suspect":0}
]}