{"id":3,"producers":[
{"lat":46.320428,"lng":2.581746,"name":"Ferme des 4 Saisons","web":"","txt":"Maraîcher","wiki":null,"tel":"","postCode":3100,"city":"Montluçon","addr":"Mélanie BONNEMENT","cat":"A","email":""}
,{"lat":46.227753,"lng":3.675371,"name":"ferme des verites","web":"","txt":"Elevage de chèvre et production de fromage 100% chèvre.","wiki":null,"tel":"0673015518","postCode":3120,"city":"Saint-Prix","addr":" La chaussée 0","cat":"A","email":""}
,{"lat":46.3102,"lng":3.802495,"name":"laforet ferme auberge le vieux logis","web":"","txt":"Productrice de fromages de chèvre , de vache , crème fraiche et beurre de la ferme .Repas à la ferme ou à emporter . Adhérent au réseau bienvenue à la ferme","wiki":null,"tel":"0671373747","postCode":3130,"city":"Lenax","addr":" lieu dit \" VINZELLES\" ","cat":"A","email":"brigitte.laforet@wanadoo.fr"}
,{"lat":46.283024,"lng":3.2217,"name":"au jardin de marie","web":"","txt":"Vente d'herbes sauvages comestibles selon saison.confitures faites maison.champignons frais, secs.et legumes cultivées sans produits chimiques et sans pesticides. \nVente à domicile .livraison possible.","wiki":null,"tel":"0685225732","postCode":3140,"city":"Chareil-Cintrat","addr":" 2 chemin de larat ","cat":"A","email":""}
,{"lat":46.410165,"lng":2.717495,"name":"les savons de catherine","web":"https://lessavonsdecatherine.com/","txt":"Savonnerie artisanale située dans le bocage Bourbonnais. Fabrication de savons naturels au lait de chèvre Bio et local selon la méthode traditionnelle de saponification à froid.","wiki":null,"tel":"0627504404","postCode":3170,"city":"Bizeneuille","addr":" 2 chemin de lonzais ","cat":"A","email":"contact@lessavonsdecatherine.com"}
,{"lat":46.473185,"lng":2.683697,"name":"koopmann","web":"","txt":"Tomme de brebis nature et aromatisé yaourts farines, lentilles et huile toutes en agriculture biologique","wiki":null,"tel":"0638807397","postCode":3190,"city":"Haut-Bocage","addr":" Crevant 03190 Louroux-Hodement ","cat":"A","email":""}
,{"lat":46.574547,"lng":3.203999,"name":"sabio d'argile","web":"","txt":"Production de légumes bio \nExploitation engagée en DEMETER\nProducteurs de plants pour professionnels","wiki":null,"tel":"0470489778","postCode":3210,"city":"Marigny","addr":" Les Rondards ","cat":"A","email":"sabiodargile@gmail.com"}
,{"lat":46.625134,"lng":3.140658,"name":"ludovic labbe","web":"","txt":"Producteur de farine (blé, seigle, grand épeautre) et viande de vache et veaux.","wiki":null,"tel":"0660258747","postCode":3210,"city":"Agonges","addr":" Saint Rassand ","cat":"A","email":""}
,{"lat":46.587996,"lng":3.144561,"name":"judith sell","web":"","txt":"Productrice de produits laitiers issue du lait de chèvre.","wiki":null,"tel":"0666682357","postCode":3210,"city":"Saint-Menoux","addr":" Les Béguets 0","cat":"A","email":""}
,{"lat":46.57456,"lng":3.16133,"name":"jean-paul bouc","web":"","txt":"Cultivateur de fruits et producteur de jus de fruits.","wiki":null,"tel":"0470439263","postCode":3210,"city":"Saint-Menoux","addr":" Chemin de la Vallée 0","cat":"A","email":""}
,{"lat":46.438711,"lng":3.640432,"name":"les logrillons","web":"https://leslogrillons.wixsite.com/website","txt":"Une famille  qui a choisit de créer leur propre ferme agroécologique et autonome. Ici on y pratique la permaculture, l'agroforesterie,  le maraichage au milieu d'un élevage familial de Chèvres du massif central et de Savoie ( Deux races qui ont bien failli disparaitre...) . C'est elles qui  nous donnent du bon lait pour nos fromages.\nVente de tisanes, de confitures, de sirops avec les produits issus de notre ferme.\n\nC'est aussi un lieu de détente et de découvertes  ou se déroule des animations ludiques et créatrices basés sur le respect de la Nature qui nous entoure.","wiki":null,"tel":"0988034925","postCode":3220,"city":"Vaumas","addr":" 6, les mignons ","cat":"A","email":"leslogrillons@gmail.com"}
,{"lat":46.210711,"lng":3.502666,"name":"brut de safran","web":"http://www.brutdesafran.com","txt":"Société familiale de production et de transformation de safran. L'intégralité de la propriété est cultivée en permaculture et une philosophie rigoureuse est mise en place dans la transformation et la commercialisation des produits.","wiki":null,"tel":"0688463751","postCode":3260,"city":"Magnet","addr":" 5 avenue de la gare ","cat":"A","email":"contact@brutdesafran.com"}
,{"lat":46.51278,"lng":3.688906,"name":"micro ferme du bourbonnais","web":"","txt":"culture de légumes, de melons, de racines et de tubercules","wiki":null,"tel":"0638100818","postCode":3290,"city":"Dompierre-sur-Besbre","addr":" 450 route de saligny ","cat":"A","email":""}
,{"lat":46.751774,"lng":2.955366,"name":"la ferme des grillons","web":"","txt":"Élevage de porcs respectant le cahier des charges de l'agriculture biologique. Charcuteries sèches et plats cuisinés. Bienvenue à la ferme\nNos viandes et charcuteries sont préparées par nos soins dans notre laboratoire agréé CE.\nOuvert tous les jours sur rendez-vous .tel: 06.70.50.49.92\nOuvert  le vendredi de 17h30 à 18h30","wiki":null,"tel":"0670504992","postCode":3320,"city":"Lurcy-Lévis","addr":" Le grelet ","cat":"A","email":"lafermedesgrillons@orange.fr"}
,{"lat":46.215053,"lng":3.093957,"name":"l'ilot nature","web":"","txt":"Producteur bio de legumes, plants potagers, aromatiques, floraux, et miel. Vente à la ferme, mardi vendredi et samedi matins, paniers sur réservation","wiki":null,"tel":"0667990480","postCode":3330,"city":"Bellenaves","addr":" Les avertis ","cat":"A","email":"esimond@laposte.net"}
,{"lat":46.27033371435458,"lng":2.993056126555649,"name":"Le Ptit Van Français 1968","web":"https://leptitvanfrancais1968.fr/","txt":null,"wiki":null,"tel":null,"postCode":3330,"city":null,"addr":"Bellenaves","cat":"H","email":"X"}
,{"lat":46.60869,"lng":2.859255,"name":"le chant des pierres","web":"","txt":"Le Chant des Pierres cultive des plantes aromatiques et médicinales, des pommes et des framboises (fraîches, séchées, congelées) et confectionne des tisanes.","wiki":null,"tel":"0470675609","postCode":3350,"city":"Theneuille","addr":" Les Bourses ","cat":"A","email":""}
,{"lat":46.713818,"lng":2.695707,"name":"ferme de la berge","web":"","txt":"Élevage de chèvres et de vaches laitières en agriculture biologique. Fabrication et vente de fromages fermiers, tommes de Grandvaux, charcuteries et viandes sur commande.","wiki":null,"tel":"0661070751","postCode":3360,"city":"Ainay-le-Château","addr":" Grandvaux ","cat":"A","email":"fermedelaberge@laposte.net"}
,{"lat":46.105628,"lng":3.025537,"name":"gaec de la licorne","web":"https://www.facebook.com/gaecdelalicorne","txt":"Ferme collective en agriculture biologique produisant des légumes, des produits laitiers (fromages de vache, beurre fermier,...), viande d'agneau et de veau. Marchés à la ferme tous les mercredi de 17h à 19h (présence de nombreux producteurs) et les samedi de 10h à 12h. Assiette paysanne issue des produits de la ferme une fois par mois, toutes les semaines l'été.","wiki":null,"tel":"0695503377","postCode":3450,"city":"Chouvigny","addr":" La Grange à Jean, Péraclos 03450 CHOUVIGNY 03","cat":"A","email":"gaecdelalicorne03@gmail.com"}
,{"lat":46.310834,"lng":3.287651,"name":"lady ale","web":"","txt":"brasserie artisanale avec des ingrédients bio et locaux, bieres brassées sur place, differentes sortes de bieres dont bieres de saison aux plantes","wiki":null,"tel":"0685679041","postCode":3500,"city":"Saint-Pourçain-sur-Sioule","addr":" 24 faubourg de paris ","cat":"A","email":"lady.ale@bbox.fr"}
,{"lat":46.265103,"lng":2.839776,"name":"asinerie de la vioune","web":"http://www.lainess.com","txt":"L’Asinerie de la Vioune est une exploitation biologique sur la commune de Hyds dans l’Allier (03).\nElle compte parmi ses pâtures une vingtaine d’ânesses et de juments avec leurs petits. Elles sont élevées sur 28 hectares de prairies naturelles et restent dehors toute l’année.\nCet élevage est dit « laitier » puisque nous prélevons leur lait pour la vente alimentaire ou la fabrication de cosmétiques.","wiki":null,"tel":"0683910623","postCode":3600,"city":"Hyds","addr":" la vilaine ","cat":"A","email":"asineriedelavioune@gmail.com"}
]}