{"id":84,"producers":[
{"lat":44.238267,"lng":4.797887,"name":"bee by by apiculture","web":"https://beebyby.business.site","txt":"Amis gastronomes, vous êtes conviés à venir gouter nos miels du Massif d'Uchaux.\nMiels d'Abeilles sédentaires, extrait d'une manière artisanale dans notre miellerie des Farjons, commune d'UCHAUX (84100). \nEst-ce l’absence de transhumance qui évite de stresser les abeilles ou est-ce la qualité du biotope du Massif d’Uchaux ? Peut être les deux … Toujours est-il qu'une dégustation (Sans obligation d'achat) s'impose. Emotion gustative Garantie.","wiki":null,"tel":"0626938845","postCode":84100,"city":"Uchaux","addr":" 777, Route de Bollène ","cat":"A","email":"beebyby@orange.fr"}
,{"lat":44.053295,"lng":4.979998,"name":"ludwig hauwelle safranier","web":"https://www.facebook.com/hauwelle.ppam","txt":"Safranier depuis 2009, mon exploitation est certifiée en Agriculture biologique depuis 2016. \nElle est située à Monteux dans le Vaucluse sur une superficie de 0.5ha, entourée des animaux de la maison et implantée sur une zone Natura 2000.","wiki":null,"tel":"0662190581","postCode":84170,"city":"Monteux","addr":" 2160 route de sarrians","cat":"A","email":"ludwig.hauwelle@laposte.net"}
,{"lat":44.119067,"lng":5.029514,"name":"domaine saint roch","web":"https://www.domaine-saintroch.fr/","txt":"Domaine viticole et oléicole, producteur notamment de Muscat de Beaumes de Venises, dans les 3 couleurs.","wiki":null,"tel":"0490658437","postCode":84190,"city":"Beaumes-de-Venise","addr":" 167 route d'Aubignan","cat":"A","email":"contact@domaine-saintroch.fr"}
,{"lat":44.038297,"lng":5.068511,"name":"héliane & magali bertrand","web":"","txt":"Cultivatrices de raisins de table et abricots à Carpentras.","wiki":null,"tel":"0490600131","postCode":84200,"city":"Carpentras","addr":" La Villemiane 2483 route de Saint Didier","cat":"A","email":""}
,{"lat":44.005526,"lng":5.112134,"name":"nougats silvain","web":"http://www.nougats-silvain.fr","txt":"Nougatier, et spécialiste du fruit confit artisanal, produits notamment avec les amandes provençales de leurs propres vergers.","wiki":null,"tel":"0490660957","postCode":84210,"city":"Saint-Didier","addr":" 4 place neuve","cat":"A","email":""}
,{"lat":43.996769,"lng":5.14573,"name":"cerises2b & earl bezert","web":"https://cerises2b.fr","txt":"Cerises2B est une société de vente de fruits. Nous vendons des cerises et des raisins provenant de notre production à Venasque. Vous trouverez aussi de nombreux produit dérivée telle que des jus, de la confiture et bien plus.\nIl se peut que nous vendions parfois d'autres fruits de la région telle que des fraises, des pêches ou des melons.","wiki":null,"tel":"","postCode":84210,"city":"Venasque","addr":" 30 place de l'église ","cat":"A","email":"contact@cerises2b.fr"}
,{"lat":43.987667,"lng":5.183851,"name":"catherine taillefer","web":"","txt":"Productrice de confitures et huiles d'olives à Venasque.","wiki":null,"tel":"0607411475","postCode":84210,"city":"Venasque","addr":" Chemin de Chinardon - Tour de Pinet","cat":"A","email":""}
,{"lat":43.864623,"lng":5.290829,"name":"le panier d’émilie","web":"https://www.lepanierdemilie.com/","txt":"Basé en Roussillon au cœur du Luberon en Provence, Le panier d’Emilie est certifié Fel Partenariat. Sur votre table, au quotidien, Le panier d'Emilie vous propose le meilleur de nos terroir. Nous proposons un service de drive et de livraison dans le Vaucluse. \n\nLe Panier d’Emilie est un des pionniers de l’économie locale, circuit court et circulaire en Luberon (depuis 2006), s’impliquant dans une démarche citoyenne éco-responsable, soucieuse de préserver et valoriser les ressources naturelles. \n\nChaque année, pour Vous, Le Panier d’Emilie entraîne de nouveaux agriculteurs dans cette politique éthique & solidaire : produire au quotidien des ingrédients aux qualités organoleptiques avérées, vierge de toute pollution:","wiki":null,"tel":"0490710898","postCode":84220,"city":"Roussillon","addr":" Zac du Pied Rousset","cat":"A","email":"lepanierdemilie@orange.fr"}
,{"lat":43.872214,"lng":5.195136,"name":"miel les demoiselles","web":"","txt":"Producteurs de divers miels, notamment de lavandes et de chataingiers","wiki":null,"tel":"0490722415","postCode":84220,"city":"Gordes","addr":" HAMEAU LES MARTINS","cat":"A","email":""}
,{"lat":43.746834,"lng":5.56091,"name":"le diamant noir","web":"https://www.facebook.com/Truffe-Le-diamant-noir-177744665907506/","txt":"Trufficulture et œufs plein air ; restaurant à la ferme, avec des produits maisons","wiki":null,"tel":"0618587888","postCode":84240,"city":"La Tour-d'Aigues","addr":" lieu dit la pourpette, Chemin de la lachaude","cat":"A","email":""}
,{"lat":44.077036,"lng":4.951034,"name":"le jardin de masset","web":"","txt":"Le jardin de Masset est un producteur de plantes aromatiques et médicinales en bio, nous produisons plus d'une centaine de variétés en pot.","wiki":null,"tel":"0616776624","postCode":84260,"city":"Sarrians","addr":" Chemin de la Tasque","cat":"A","email":"lejardindemasset@gmail.com"}
,{"lat":43.871443,"lng":5.003579,"name":"sarnette","web":"","txt":"Sarnette cultive des fruits et confectionne du jus de pommes.","wiki":null,"tel":"0490780813","postCode":84300,"city":"Cavaillon","addr":" 1100 Chemin du Grand Roulet Les Vignères ","cat":"A","email":""}
,{"lat":44.032136,"lng":5.457292,"name":"terre des lavandes","web":"","txt":"Terre des Lavandes propose de la farine, huile essentielle de lavande et hydrolat de lavande.","wiki":null,"tel":"0490640143","postCode":84390,"city":"Sault","addr":" Hameau de Brouville","cat":"A","email":""}
,{"lat":43.876891,"lng":5.394225,"name":"confiserie le coulon","web":"","txt":"point de vente des fruits confits artisanaux de la famille CECCON. Famille de confisseurs et chocolatiers.","wiki":null,"tel":"0490742190","postCode":84400,"city":"Apt","addr":" 24 quai de la Liberté ","cat":"A","email":""}
,{"lat":43.905538,"lng":5.37473,"name":"le potager de celeste","web":"https://www.facebook.com/Le-potager-de-celeste-1430601457244513/?pnref=lhc","txt":"producteur fruits & légumes en lutte raisonnée \nvente directe au stand en saison","wiki":null,"tel":"0613513425","postCode":84400,"city":"Gargas","addr":" 346 chemin beyssan 84400 gargas","cat":"A","email":"phenix84@orange.fr"}
,{"lat":43.897775,"lng":4.917605,"name":"les  escargots  de  valerie","web":"","txt":"productrice  d escargots   gros  gris   petits gris , vifs  , bocaux  surgelés  .\n\nproduction sur  caumont sur  durance","wiki":null,"tel":"0666517154","postCode":84510,"city":"Caumont-sur-Durance","addr":" chemin de reveillac","cat":"A","email":"valourite@hotmail.fr"}
,{"lat":44.008952,"lng":5.216883,"name":"la manouche","web":"https://lamanouche.fr","txt":"Des conserves artisanales à base de fruits et légumes locaux, de saison ou cultivés dans notre potager bio quand c'est possible.","wiki":null,"tel":"0631332646","postCode":84570,"city":"Méthamis","addr":" 901 chemin de Lombarde","cat":"A","email":"la.manouche@outlook.fr"}
,{"lat":43.889282,"lng":5.555446,"name":"brasserie viensoise","web":"https://brasserieviensoise.com","txt":"La Brasserie Viensoise vous propose la Bière Bl(u)p, bière de L'est (du Vaucluse). C'est 6 bières différentes réalisées avec du Malt Bio et Français.","wiki":null,"tel":"0662748653","postCode":84750,"city":"Viens","addr":" Chemin des Faysses","cat":"A","email":"contact@brasserieviensoise.com"}
,{"lat":43.875472,"lng":5.479682,"name":"domaine allois","web":"http://www.domaine-allois.com/fr/","txt":"Domaine viticole, en appellation Ventoux et Luberon","wiki":null,"tel":"0490744116","postCode":84750,"city":"Caseneuve","addr":" Hameau du Boisset","cat":"A","email":"domaineallois@hotmail.fr"}
]}