{"id":50,"producers":[
{"lat":49.093554,"lng":-1.075748,"name":"ferme du perriers","web":"","txt":"Ferme de taille familiale en agriculture biologique depuis 1999.\nMarché de producteurs bio et locaux sur notre ferme les mardis et vendredis de 16h à 19h: la Cabane Penchée","wiki":null,"tel":"0662244623","postCode":50000,"city":"Baudre","addr":" route de Baudre 50000 Saint-Lô ","cat":"A","email":""}
,{"lat":49.010133,"lng":-0.945294,"name":"ferme de la hogue","web":"https://fermedelahogue.fr/","txt":"Production de légumes en conversion bio, que vous pouvez retrouver lors des marchés a la ferme (le mercredi aprem 16h30-19h et le samedi matin 9h30-12h) ou tous les jours de la semaine en passant commande sur notre site internet www.fermedelahogue.fr","wiki":null,"tel":"0681795315","postCode":50160,"city":"Torigny-les-Villes","addr":" 6 la Hogue 50160 Guilberville ","cat":"A","email":"contact@fermedelahogue.fr"}
,{"lat":48.592804,"lng":-1.440549,"name":"le champ des possibles","web":"https://www.facebook.com/LeChampDesPossiblesTanis","txt":"Le champ des possible est une ferme en polyculture élevage (bovin viande) en conversion vers l'agriculture biologique.","wiki":null,"tel":"0769611249","postCode":50170,"city":"Tanis","addr":" 13 rue de la gare","cat":"A","email":"gilles.emmanuel@gmail.com"}
,{"lat":48.654126,"lng":-1.240586,"name":"barbedette","web":"","txt":"Petit ferme qui élevés c'est animaux de façon traditionnelle, non intensif.\nNous vendons nos produits sous vide en caissette. \nRéserver des maintenant.","wiki":null,"tel":"0233501356","postCode":50220,"city":"Marcilly","addr":" Le court champs 19 route de la boulouze","cat":"A","email":"ferme.barbedette@gmai.com"}
,{"lat":49.251705,"lng":-1.270719,"name":"ferme du chastel","web":"http://Facebook/ferme du Chastel.com»","txt":"Producteurs local & familial de fromages de chèvre fermier BIO \n- Vente à la ferme tous les jours de 17h à 19h \n- Marché de producteurs à la ferme tous les vendredi de 17h à 19h","wiki":null,"tel":"0686640291","postCode":50500,"city":"Terre-et-Marais","addr":" 33 Lieu-dit Le Mesnil, rue du Mesnil 50500 Saint-Georges-de-Bohon ","cat":"A","email":"fermeduchastel@gmail.com"}
,{"lat":49.070527,"lng":-1.296532,"name":"damien lemasson","web":"http://www.cidre-lemasson.fr/","txt":"Damien Lemasson est producteur de cidre. Il produit aussi des Calvados et d’autres produits plus originaux comme le p’tit Zef en apéritif.","wiki":null,"tel":"0233458073","postCode":50570,"city":"Cametours","addr":" Le Vaucher","cat":"A","email":"cidrelemasson@yahoo.fr"}
,{"lat":49.18682,"lng":-1.147083,"name":"ferme de l'orangerie","web":"https://ferme-orangerie.fr","txt":"Ferme Biologique , de taille familiale. Nous vous proposons des produits laitiers transformés par nos soins .\nfb: Ferme de L'Orangerie","wiki":null,"tel":"0679023950","postCode":50620,"city":"Le Dézert","addr":" l'Orangerie","cat":"A","email":"fermedelorangerie@gmail.com"}
,{"lat":49.586781,"lng":-1.369356,"name":"ferme du vastel","web":"http://www.lafermeduvastel.net/","txt":"Dans la famille depuis plus de 150 ans, la ferme du Vastel s'est endormie dans les années 50. Elle se réveille en 2007 avec une toute petite production cidricole.","wiki":null,"tel":"0964165273","postCode":50630,"city":"Teurthéville-Bocage","addr":" Le Vastel","cat":"A","email":"fermeduvastel@gmail.com"}
,{"lat":49.495464,"lng":-1.511199,"name":"la ferme de domi et isa","web":"","txt":"Production et vente directe de glaces et sorbets, viandes de veau et génisse.","wiki":null,"tel":"0233951947","postCode":50700,"city":"Yvetot-Bocage","addr":" 8 bis route de la Vautière ","cat":"A","email":"dominique.poisson4@wanadoo.fr"}
]}