{"id":47,"producers":[
{"lat":44.187478,"lng":0.628655,"name":"savonnerie lou karitan","txt":"Savonnerie artisanale de fabrication de savons par saponification à froid et de cosmétiques naturels...","wiki":null,"postCode":47000,"city":"Agen","addr":" 523, rue du Docteur et Madame Delmas","cat":"P","tel":"0553680568","email":"loukaritan@gmail.com","web":"https://loukaritan.fr/","suspect":0}
,{"lat":44.206465,"lng":0.618476,"name":"ATELIER NADAï","txt":" Peintre en décor","wiki":null,"postCode":47000,"city":"Agen","addr":"8 rue François Arago, 47000 AGEN","cat":"OE","tel":"0609930913","email":"michel.nadai@wanadoo.fr","web":"http://www.atelier-nadai.com","suspect":0}
,{"lat":44.203875,"lng":0.61554,"name":"POTERIE DE LARCHE","txt":"Tourneur céramique","wiki":null,"postCode":47000,"city":"Agen","addr":"2, rue Garonne, 47000 AGEN","cat":"OP","tel":"0668819051","email":"poteriedelarche@orange.fr","web":"","suspect":0}
,{"lat":44.399084,"lng":0.589587,"name":"PIANOS STÉPHANE MELIET","txt":" Facteur et restaurateur de pianos","wiki":null,"postCode":47110,"city":"Sainte-Livrade-sur-Lot","addr":"Place du Marché, 47110 Sainte Livrade sur Lot","cat":"OL","tel":"0553705549","email":"pianosmeliet@wanadoo.fr","web":"","suspect":0}
,{"lat":44.731545,"lng":0.274414,"name":"tingaud vins et villégiature","txt":"Tingaud Vins et Villégiature confectionne boissons, vins et spiritueux.","wiki":null,"postCode":47120,"city":"Saint-Astier","addr":" Les Guignards","cat":"AB","tel":"0688183679","email":"","web":"","suspect":0}
,{"lat":44.618677,"lng":0.15577,"name":"ATELIER DU CARROUSSEL","txt":" Doreur-ornemaniste","wiki":null,"postCode":47120,"city":"Saint-Géraud","addr":"Le Carroussel, ","cat":"OO","tel":"0683963789","email":"atelierducarroussel.dorangeon@orange.fr","web":"","suspect":0}
,{"lat":44.254218,"lng":0.401596,"name":"if champignons d'aquitaine","txt":"producteurs de champignons pleurotes et shiitake,\ninstallés à Port Sainte Marie depuis mars 2021\nvisite sympathique de l'exploitation et ventes directes à la ferme possible","wiki":null,"postCode":47130,"city":"Port-Sainte-Marie","addr":" domaine du Blazy","cat":"AO","tel":"0649706790","email":"tristan.ifchampignons@gmail.com","web":"","suspect":0}
,{"lat":44.385598,"lng":0.830927,"name":"clémence,herbes et sens...","txt":"PRODUCTRICE DE PLANTES AROMATIQUES ET MEDICINALES\ndivers produits transformés : tisanes; hydrolat, sels aromatisés, aromes naturels...","wiki":null,"postCode":47140,"city":"Penne-d'Agenais","addr":" PIED BAS","cat":"P","tel":"","email":"","web":"http://clemenceherbesetsens.jimdo.fr","suspect":0}
,{"lat":44.397631,"lng":0.834092,"name":"locatelli","txt":"Producteur de viandes (bœuf et veau) et cultivateur de pruneaux.","wiki":null,"postCode":47140,"city":"Penne-d'Agenais","addr":" Perdigou","cat":"AV","tel":"0553417954","email":"","web":"","suspect":0}
,{"lat":44.355939,"lng":0.832735,"name":"l'athanor","txt":"L'Athanor produit des pruneaux et dérivés, de l'huile alimentaire (tournesol et carthame), des pois chiches, lentilles et farine de blé.","wiki":null,"postCode":47140,"city":"Penne-d'Agenais","addr":" Le Béqui ","cat":"AC","tel":"0553414557","email":"","web":"http://www.lafermedubequi.com/","suspect":0}
,{"lat":44.402999,"lng":0.857535,"name":"CHARBONNIER SIMON","txt":"Ferronnier","wiki":null,"postCode":47140,"city":"Penne-d'Agenais","addr":"Mamet Saint Martin des Cailles, ","cat":"OF","tel":"0685910751","email":"simoncharbonnier@aol.com","web":"http://dinanderie-charbonnier.com","suspect":0}
,{"lat":44.389354,"lng":0.819462,"name":"GALAXEA","txt":"Verrier à la main","wiki":null,"postCode":47140,"city":"Penne-d'Agenais","addr":"Place de la Tourtière, 47140 Penne d'Agenais","cat":"OE","tel":"0630580614","email":"","web":"","suspect":1}
,{"lat":44.389428,"lng":0.819541,"name":"SYLVIE BOYER - TISSAGE D'ART","txt":" Tisserand","wiki":null,"postCode":47140,"city":"Penne-d'Agenais","addr":"1, rue Bombecul, 47140 Penne d'Agenais","cat":"HT","tel":"0674726234","email":"sylvieboyer47@aol.com","web":"http://www.sylvieboyer-tissage.com","suspect":0}
,{"lat":44.532457,"lng":0.767853,"name":"savonnerie saponaire","txt":"Savonnerie Saponaire, savons artisanaux, cosmétique et article d'hygiène sous mention Nature & Progrès savons en saponification à froid aux ingrédients biologiques sans aucun additif chimique ou de synthèse comme toute notre gamme.","wiki":null,"postCode":47150,"city":"Monflanquin","addr":" 47, Place des Arcade","cat":"P","tel":"0553364615","email":"correspondance@savonnerie-saponaire.com","web":"https://www.savonnerie-saponaire.com/","suspect":0}
,{"lat":44.553161,"lng":0.88057,"name":"rucher de la tour","txt":"MIEL PROPOLIS PRODUITS DE LA RUCHE \nNOIX\nVENTE SUR PLACE TOUS LES JOURS DE 9H A 18 H\nTEL AVANT DE VOUS DEPLACEZ TEL 0553408177","wiki":null,"postCode":47150,"city":"Salles","addr":" TERRE ROUGE","cat":"AA","tel":"0553408177","email":"lechaletgourmand0468@orange.fr","web":"","suspect":0}
,{"lat":44.302941,"lng":0.347856,"name":"la ferme des aigrettes","txt":"Nous vendons au détail les produits de notre ferme, des légumes biologiques, toute l'année.","wiki":null,"postCode":47190,"city":"Aiguillon","addr":" 8 rue d'Argenteau","cat":"AM","tel":"0623252130","email":"ferme.des.aigrettes@gmail.com","web":"https://www.facebook.com/ferme.des.aigrettes.aiguillon","suspect":0}
,{"lat":44.521665,"lng":0.17493,"name":"FRACASSI DAVID","txt":"Vernisseur finisseur","wiki":null,"postCode":47200,"city":"Marmande","addr":"Beyssac, ","cat":"OO","tel":"0677807591","email":"davidfracassi@hotmail.fr","web":"","suspect":0}
,{"lat":44.174475,"lng":0.691648,"name":"ET SI VOUS'OSIER!","txt":" Vannier","wiki":null,"postCode":47240,"city":"Castelculier","addr":"29, avenue Jean Monnet, 47240 CASTELCULIER","cat":"OO","tel":"0678810526","email":"","web":"","suspect":1}
,{"lat":44.566539,"lng":0.624693,"name":"earl de marouty","txt":"Eleveur de vaches Highlands Cattle Bio à Cancon\nPruniculteur et éleveur d'agneaux\nVente de viande de Boeuf, pruneaux et agneaux","wiki":null,"postCode":47290,"city":"Cancon","addr":" Jean Marouty","cat":"AV","tel":"0678718337","email":"earldemarouty@outlook.fr","web":"https://www.facebook.com/pages/category/Farm/Ferme-de-Jean-Marouty-1785521935024480/","suspect":0}
,{"lat":44.404426,"lng":0.702667,"name":"ATELIER AMERICI","txt":" Ebéniste","wiki":null,"postCode":47300,"city":"Villeneuve-sur-Lot","addr":"42, rue d'Agen, 47300 Villeneuve-Loubet","cat":"OO","tel":"0553701425","email":"francis.americi@wanadoo.fr","web":"","suspect":0}
,{"lat":44.407308,"lng":0.707296,"name":"Bijouterie Cheviron","txt":" Bijoutier en métaux précieux","wiki":null,"postCode":47300,"city":"Villeneuve-sur-Lot","addr":"42 rue des Frères Clavet, ","cat":"OB","tel":"0553016176","email":"","web":"","suspect":1}
,{"lat":44.35558,"lng":0.438089,"name":"maison du pruneau","txt":"Producteur de pruneaux depuis 4 générations,nous transformons notre prune en pruneaux vente à la ferme ou par correspondance Venez déguster nos pruneaux\nLa gourmandise Agenaise Pruneaux fourrés à la crème de pruneaux\nPrunchoco Pruneaux enrobés de chocolat\ncrème de pruneaux pulpe de pruneaux sans sucre rajouté","wiki":null,"postCode":47320,"city":"Lafitte-sur-Lot","addr":" braunes","cat":"A","tel":"0553840417","email":"maison.du.pruneau@wanadoo.fr","web":"http://www.maisondupruneau.com","suspect":0}
,{"lat":44.359123,"lng":0.449176,"name":"SAUDEL NOÉMIE","txt":"Tourneur céramique","wiki":null,"postCode":47320,"city":"Lafitte-sur-Lot","addr":"Lieu dit Prats de Roux, 47320 Lafitte sur Lot","cat":"OP","tel":"0677721374","email":"s.noemie@yahoo.fr","web":"","suspect":0}
,{"lat":44.654425,"lng":0.603334,"name":"savonnerie soleil de mai","txt":"Fabrication artisanale par saponification à froid de savons surgras sous mention Nature & Progrès. \nFabrication artisanale de bougies végétales et de parfums d intérieur à base d ingrédients 100% naturels et bio.\nRéalisation d ateliers cosmétiques.","wiki":null,"postCode":47330,"city":"Castillonnès","addr":" Grillon","cat":"P","tel":"0610630407","email":"","web":"https://www.soleil-de-mai.fr","suspect":0}
,{"lat":44.336959,"lng":0.721226,"name":"EVE DELANEUVILLE","txt":"Sculpteur sur bois","wiki":null,"postCode":47340,"city":"Saint-Antoine-de-Ficalba","addr":"Péchon, 47340 Saint-Antoine De Ficalba","cat":"OO","tel":"0642134937","email":"","web":"","suspect":1}
,{"lat":44.581135,"lng":0.319886,"name":"L'ÉTINCELLE","txt":" Cirier","wiki":null,"postCode":47350,"city":"Peyrière","addr":"Lavalade, ","cat":"OE","tel":"0674151407","email":"art.etincelle47@gmail.com","web":"","suspect":1}
,{"lat":44.306218,"lng":0.493746,"name":"soleil levain","txt":"Pain au levain de blés anciens, petit épeautre, seigle, maïs, sans gluten. Certification Nature&Progrès.\ningrédients bio, levain naturel, sel de Guérande\nblés anciens, petit épeautre, seigle, sans gluten","wiki":null,"postCode":47360,"city":"Lacépède","addr":"1040 chemin de Gastepan","cat":"AC","tel":"0750221743","email":"contact@painsoleillevain.fr","web":"https://www.painsoleillevain.fr","suspect":0}
,{"lat":44.281157,"lng":0.510233,"name":"Atelier de Céline","txt":" Peintre sur bois","wiki":null,"postCode":47360,"city":"Prayssas","addr":"Couly, ","cat":"OO","tel":"0670909557","email":"atelierdeceline47@gmail.com","web":"http://www.atelierdeceline.fr","suspect":0}
,{"lat":44.297609,"lng":0.49997,"name":"Hugues Louis atelier bois","txt":" Ebéniste","wiki":null,"postCode":47360,"city":"Prayssas","addr":"Lieu-dit Duc, ","cat":"OO","tel":"0674154785","email":"hugues.louis@hotmail.fr","web":"http://www.hugueslouisatelierbois.fr","suspect":0}
,{"lat":44.437336,"lng":0.570756,"name":"le verger du limousy","txt":"Le Verger du Limousy fabrique du jus de pommes et crèmes de pruneaux.","wiki":null,"postCode":47380,"city":"Pinel-Hauterive","addr":" Limousy","cat":"AF","tel":"0553012266","email":"","web":"","suspect":0}
,{"lat":44.458786,"lng":0.51398,"name":"ATELIER BORDE BASSE","txt":" Sculpteur sur pierre","wiki":null,"postCode":47380,"city":"Monclar","addr":"Borde Basse, ","cat":"OZ","tel":"0553418034","email":"","web":"","suspect":1}
,{"lat":44.134704,"lng":0.661297,"name":"ATELIER DES ARCADES","txt":" Tapissier d'ameublement/tapissier décorateur","wiki":null,"postCode":47390,"city":"Layrac","addr":"1, Place Jean Jaurès, ","cat":"OE","tel":"0682174057","email":"","web":"","suspect":1}
,{"lat":44.130017,"lng":0.678822,"name":"SERGE CARVALHO","txt":" Ferronnier","wiki":null,"postCode":47390,"city":"Layrac","addr":"Rte de Caudecoste, 47390 LAYRAC","cat":"OF","tel":"0553670048","email":"","web":"","suspect":1}
,{"lat":44.469642,"lng":0.327755,"name":"légumes bio petit mayne","txt":"légumes bio de saison en petites quanttiés\n\npommes de terre rouges, salades,artichauts,topinambours...\n\nà Gontaud 47400\n\nappelez avant de venir merci","wiki":null,"postCode":47400,"city":"Gontaud-de-Nogaret","addr":" le petit mayne","cat":"AM","tel":"0553833660","email":"cuisery.petit@laposte.net","web":"http://legumes-bio.eklablog.com/","suspect":0}
,{"lat":44.660066,"lng":0.495749,"name":"pure aquitaine","txt":"Savonnerie artisanale : savons solides, savons liquides, savons ménagers, parfums d'intérieur. Des produits bio, certifiés Nouvellecosmetique.org","wiki":null,"postCode":47410,"city":"Lauzun","addr":" 1970 route de Queyssel","cat":"P","tel":"0524301055","email":"contact@pureaquitaine.fr","web":"https://pureaquitaine.fr","suspect":0}
,{"lat":44.617139,"lng":0.41889,"name":"MARIE RUIZ","txt":" Céramiste","wiki":null,"postCode":47410,"city":"Bourgougnague","addr":"La Moulinotte, 47410 Lauzun","cat":"OP","tel":"0553941695","email":"aquater47@orange.fr","web":"http://www.marie-r.over-blog.com","suspect":0}
,{"lat":44.266163,"lng":0.863598,"name":"côteaux nature","txt":"Production de légumes certifiée en bio, vente de paniers composés de légumes de saison.","wiki":null,"postCode":47470,"city":"Beauville","addr":" Las Condios","cat":"AM","tel":"0553963659","email":"","web":"","suspect":1}
,{"lat":44.195431,"lng":0.605327,"name":"ATELIER SCHUSTER","txt":" Décorateur sur bois","wiki":null,"postCode":47520,"city":"Le Passage","addr":"5, rue de la Garonne, ","cat":"OO","tel":"0617430389","email":"","web":"","suspect":1}
,{"lat":44.174795,"lng":0.649406,"name":"LA MAISON DE L'ART","txt":" Sculpteur sur métal","wiki":null,"postCode":47550,"city":"Boé","addr":"La mothe bezat, 47550 Boè","cat":"OF","tel":"0603393972","email":"willy.labruyere@yahoo.fr","web":"","suspect":0}
,{"lat":44.05487,"lng":0.325431,"name":"les fromages de marie","txt":"Fromages de Chèvre Bio au lait cru.\nEleveur / Fromager Artisant (voire artiste).","wiki":null,"postCode":47600,"city":"Moncrabeau","addr":" Le petit couloumé ","cat":"AF","tel":"","email":"lesfromagesdemarie@gmail.com","web":"","suspect":1}
,{"lat":44.135032,"lng":0.338875,"name":"ALBRET PHOTO YVON MONET","txt":" Photographe illustrateur","wiki":null,"postCode":47600,"city":"Nérac","addr":"5, cours Romas, ","cat":"OD","tel":"0553655976","email":"contact@yvon-monet.fr","web":"http://www.yvon-monet.com","suspect":0}
,{"lat":44.338229,"lng":0.087937,"name":"L'ATELIER DE LA PIERRE","txt":"Sculpteur sur pierre","wiki":null,"postCode":47700,"city":"Casteljaloux","addr":"Augas, ","cat":"OZ","tel":"0553649812","email":"lavaud.regis@wanadoo.fr","web":"http://artdelapierre.over-blog.org","suspect":0}
,{"lat":44.354052,"lng":0.093115,"name":"ACT'ART","txt":" Restaurateur de tableaux","wiki":null,"postCode":47700,"city":"Poussignac","addr":"Gachot, ","cat":"OD","tel":"0677292386","email":"","web":"","suspect":1}
,{"lat":44.309219,"lng":0.126016,"name":"DIANNE-DECO","txt":" Peintre en décor","wiki":null,"postCode":47700,"city":"La Réunion","addr":"Mourray, 47700 LA REUNION","cat":"OE","tel":"0609044102","email":"","web":"","suspect":1}
,{"lat":44.656091,"lng":0.350246,"name":"domaine clos de l'ange","txt":"Petit domaine situé sur La Sauvetat du dropt. Le vignoble de 4,5 ha de vignes produis des vins en AOC Côtes de Duras. (vin rouge, blanc sec et moelleux ainsi qu'un rosé sec).\nLe magasin du domaine est ouvert du lundi au vendredi de 15H à 18H et le samedi sur RDV.","wiki":null,"postCode":47800,"city":"La Sauvetat-du-Dropt","addr":" 202 route du lac","cat":"AB","tel":"0643427251","email":"contact.closdelange@gmail.com","web":"https://www.closdelange.fr","suspect":0}
]}