{"id":25,"producers":[
{"lat":47.2573,"lng":6.02581,"name":"le rucher du comtois","txt":"Apiculteur producteur situé à Besançon.\nProduit et récolte son miel dans le département du DOUBS dans un rayon de 80 kms autour de Besançon. \nLe Rucher du Comtois produit des miels locaux uniquement,disponibles selon les saisons et les récoltes. Le Rucher du comtois propose également des produits dérivés ( pain d'épices, pollen... )","wiki":null,"postCode":25000,"city":"Besançon","addr":" 21 rue du refuge","cat":"AA","tel":"0636357086","email":"nico.brugger@laposte.net","web":"","suspect":1}
,{"lat":47.23806,"lng":6.026055,"name":"ALEXANDRE BRAUN JOAILLIER","txt":"Restaurateurs de montres de collection","wiki":null,"postCode":25000,"city":"Besançon","addr":"59 ter, rue des granges, ","cat":"OB","tel":"0381812165","email":"a.braun.joaillier@laposte.net","web":"http://www.braunjoaillier.com","suspect":0}
,{"lat":47.23115,"lng":6.0136,"name":"ATELIER DES 3 PORTES","txt":" Restaurateur de tableaux","wiki":null,"postCode":25000,"city":"Besançon","addr":"3, rue de Chaudanne, 25000 BESANCON","cat":"OD","tel":"0608264928","email":"atelierdes3portes@orange.fr","web":"","suspect":1}
,{"lat":47.25413,"lng":5.98719,"name":"Aux Monts Fermiers","txt":"","wiki":null,"postCode":25000,"city":"Besançon","addr":"17 Rue Georges Monneur ","cat":"AG","tel":"0381662863","email":"","web":"","suspect":0}
,{"lat":47.39303,"lng":6.812278,"name":"A.R.O.A atelier de restauration d'œuvres d'art","txt":"Doreur-ornemaniste","wiki":null,"postCode":25150,"city":"Autechaux-Roide","addr":"11 rue du Landry, ","cat":"OE","tel":"0611635448","email":"Atelier.aroa@hotmail.com","web":"","suspect":0}
,{"lat":46.805292,"lng":6.272016,"name":"le champs des possibles","txt":"production de légumes en plein champs , betteraves, carottes pomme de terre , courge , ails oignons , échalotte poireaux ,et plus selon la saison .Travail en traction equine et manuel","wiki":null,"postCode":25160,"city":"Labergement-Sainte-Marie","addr":" ferme du montrinsant n route de malpas","cat":"AM","tel":"0610034120","email":"","web":"","suspect":0}
,{"lat":47.523632,"lng":6.817156,"name":"spiruline création","txt":"Ferme de production de spiruline :\nProduction de spiruline en paillettes et en poudre dans nos propres bassins à Grand Charmont.\nVisite de la ferme le lundi sur rendez-vous à prendre par mail ou téléphone.","wiki":null,"postCode":25200,"city":"Grand-Charmont","addr":" Zone artisanale du charmontet 06 rue du charmontet 25200 Grand Charmont","cat":"AO","tel":"0662290313","email":"spirulinecreation@gmail.com","web":"http://www.spirulinecreation.fr","suspect":0}
,{"lat":47.541392,"lng":6.805659,"name":"Les Serres Drezet","txt":"Horticulteur","wiki":null,"postCode":25200,"city":"Bethoncourt","addr":"3 impasse des Fleurs ","cat":"A","tel":"0381966423","email":"","web":"","suspect":0}
,{"lat":47.486032,"lng":6.637861,"name":"enoelai","txt":"Savonnerie artisanale. Fabrication de savon par saponification à froid.\nMatières premières certifiées bio.","wiki":null,"postCode":25250,"city":"Bretigney","addr":" 13 rue des tilleuls","cat":"P","tel":"0755622602","email":"","web":"","suspect":1}
,{"lat":47.480625,"lng":6.617596,"name":"Ferme des Gravalons (ex. Ferme des Minimes)","txt":"Eleveur de volailles","wiki":null,"postCode":25250,"city":"Beutal","addr":"Chemin en Berme ","cat":"A","tel":"0689058777","email":"","web":"","suspect":0}
,{"lat":46.939095,"lng":6.207127,"name":"Ferme Maugain","txt":"Éleveur","wiki":null,"postCode":25270,"city":"Chapelle-d'Huin","addr":"2 rue des Champs 25270 Chapelle-d’Huin","cat":"A","tel":"0381699027","email":"","web":"","suspect":0}
,{"lat":47.115008,"lng":6.167214,"name":"ferme paysanne les volubiles","txt":"Nous produisons des légumes, fruits et produits transformés tels que tartinables végétariens, coulis de tomate, confitures, sirops, etc.","wiki":null,"postCode":25290,"city":"Ornans","addr":" route du Martinet","cat":"AM","tel":"0611620838","email":"","web":"","suspect":0}
,{"lat":47.101504,"lng":6.154251,"name":"ATELIER NATHALIE GIMBEL","txt":" Peintre décorateur sur tissu","wiki":null,"postCode":25290,"city":"Ornans","addr":"2 Rue de Nahin, ","cat":"OE","tel":"0688656805","email":"gimbel.nathalie@wanadoo.fr","web":"","suspect":0}
,{"lat":47.357685,"lng":6.856268,"name":"Ferme de la Roche Jella","txt":"Agriculteur","wiki":null,"postCode":25310,"city":"Villars-lès-Blamont","addr":"Ferme de la Roche Jella ","cat":"A","tel":"0381925141","email":"","web":"","suspect":0}
,{"lat":47.417805,"lng":6.885986,"name":"GAEC Voireuchon","txt":"Agriculteur","wiki":null,"postCode":25310,"city":"Meslières","addr":"Lieu-dit Rombois ","cat":"A","tel":"0381357423","email":"","web":"","suspect":0}
,{"lat":47.226594,"lng":5.894511,"name":"La Ferme des 3 Rivières","txt":"Magasin de produits locaux","wiki":null,"postCode":25320,"city":"Chemaudin et Vaux","addr":"Place de la Mare 25320 Chemaudin","cat":"A","tel":"0381584555","email":"","web":"","suspect":0}
,{"lat":47.226016,"lng":5.891941,"name":"La Ferme des Trois Rivières","txt":"Produits : Fruits, Légumes, Poissons, Viandes, Traiteur et charcuterie, Volaille et lapin, Fromages, Oeufs et produits laitiers, Pain et patisseries, Miels et confitures, Huiles et vinaigres, Épicerie, Vins et alcools, Jus et sirops","wiki":null,"postCode":25320,"city":"Chemaudin et Vaux","addr":"Rue de la Mare 25320 Chemaudin","cat":"AG","tel":"0381584555","email":"","web":"","suspect":0}
,{"lat":46.974441,"lng":6.001988,"name":"aqua ça pousse","txt":"Producteur de Champignons BIO\n\nProduction de pleurotes, shiitaké et quelques autres variétés en fonction des saisons (hydne hérisson, pleurotes jaunes, strophaire Rouge-Vin), en frais, déshydratés ainsi que transformés.\nCultivés naturellement, sans aucun pesticide ni produit de synthèse, ces champignons se distinguent par leur fraîcheur et leur qualité supérieure.\n\n...\nCulture en Aquaponie\n\nLe système de culture aquaponique permet de produire des légumes et autre plantes, grâce à l’élevage de poissons. À l’extérieur, aromates et épices se développent rapidement.","wiki":null,"postCode":25330,"city":"Nans-sous-Sainte-Anne","addr":" 19 rue Voinat","cat":"AM","tel":"0602452967","email":"florian.daros@gmail.com","web":"http://www.aquacapousse.fr","suspect":0}
,{"lat":47.002006,"lng":6.022729,"name":"la ferme de flogaë","txt":"Fromages de chèvres biologique frais, demis, secs. Tomme de chèvres biologique. Faisselles de chèvres biologique. Fromages frais aux herbes biologique.","wiki":null,"postCode":25330,"city":"Éternoz","addr":" 6 route de nans sous sainte Anne","cat":"AF","tel":"0679081421","email":"lafermedeflogae@gmail.com","web":"","suspect":0}
,{"lat":47.010117,"lng":6.022554,"name":"marjorie bourgeois","txt":"Elevage d'escargots. vente de produits surgelés, en bocaux...","wiki":null,"postCode":25330,"city":"Éternoz","addr":" 16 rue de la forge","cat":"A","tel":"0689443877","email":"lescargotdulison@gmail.com","web":"","suspect":0}
,{"lat":46.745088,"lng":6.380741,"name":"le bon sauvage","txt":"Productions Bio issues de cueillettes sauvages : gelée framboises sauvages, sapin, cramaillotte, Pesto ail des ours, confitures de Mûres, cynorhodons, sirops sureau, sapin, framboise.. Vinaigres et sel aromatisés..","wiki":null,"postCode":25370,"city":"Jougne","addr":" Entre les Fourgs","cat":"AB","tel":"0673371651","email":"vince.pobel@gmail.com","web":"","suspect":0}
,{"lat":47.478011,"lng":6.842872,"name":"La Corbeille Paysanne","txt":"","wiki":null,"postCode":25400,"city":"Audincourt","addr":"20 Rue de Seloncourt ","cat":"AG","tel":"0381345408","email":"","web":"","suspect":0}
,{"lat":47.042784,"lng":5.944148,"name":"la ferme du lison","txt":"Bonjour, la Ferme du Lison est une exploitation agricole caprine. Nous transformons le lait de nos biquettes en différents produits : fromages lactiques, tomme, yaourt, faisselle, beurre, crème etc . \nElle propose également des œufs frais de poules élevées en plein air. \nNous proposons des visites à la Ferme et une vente de nos produits au sein d’un magasin à la Ferme. \nVenez randonner au cœur de la vallée du Lison, nous serons heureux de vous y accueillir. À bientôt","wiki":null,"postCode":25440,"city":"Échay","addr":" Sous le saux","cat":"AF","tel":"0636994636","email":"","web":"","suspect":1}
,{"lat":47.098441,"lng":5.812676,"name":"légumes du château","txt":"Légumes de saison biologique (voir blog). En place depuis 2017, je cultive sur petites surfaces avec un minimum de travail du sol.","wiki":null,"postCode":25440,"city":"Fourg","addr":" 2 ROUTE DE BYANS","cat":"AM","tel":"0769465372","email":"fredlanger@gmail.com","web":"http://legumesduchateau.unblog.fr","suspect":0}
,{"lat":47.214836,"lng":6.401161,"name":"fromagerie artisanale de lucile","txt":"Fabrication à l'ancienne de fromages au lait cru.","wiki":null,"postCode":25530,"city":"Épenouse","addr":" 12 grande rue","cat":"AF","tel":"0381574291","email":"","web":"","suspect":1}
,{"lat":47.333666,"lng":6.199192,"name":"histoire de goûts","txt":"Histoire de goûts – GAEC MESNIER\n11 rue Saint Martin\n25640 Pouligney-Lusans\n\nMagasin de vente directe à la ferme ! \nNotre Ferme se situe à Pouligney-Lusans, à 20km de Besançon Est. \nNotre ferme familiale bénéficie d’une solide expérience depuis 3 générations, avec une évolution vers une agriculture durable et proche du consommateur. Notre objectif est de fabriquer nos produits dans le respect des animaux et de l’environnement, afin de proposer le meilleur à nos clients. Le bien-être de notre cheptel de vaches laitières est ainsi primordial.  \n\nLa vente de produits laitiers sur l’exploitation\nNous avons mis en place la vente de produits laitiers au sein même de notre ferme, avec un magasin accessible à tous. Grâce à ce système, nous garantissons la vente de produits frais fabriqués sur place.\nAvec ces produits laitiers vous retrouverez toutes les saveurs du fromage au lait cru et du lait produit dans vos campagnes.\nNous vous proposons un panel de 18 parfums de yaourts pour faire frétiller vos papilles. Notre b","wiki":null,"postCode":25640,"city":"Pouligney-Lusans","addr":" 11 RUE SAINT MARTIN","cat":"AF","tel":"0615950885","email":"histoiredegouts25640@gmail.com","web":"","suspect":0}
,{"lat":47.407104,"lng":6.247226,"name":"L'escargot de Cendrey","txt":"Heliciculteur","wiki":null,"postCode":25640,"city":"Cendrey","addr":"8 rue de battenans ","cat":"A","tel":"0682333043","email":"","web":"","suspect":0}
,{"lat":46.992398,"lng":6.428683,"name":"GAEC DE LA RICORNE","txt":"Eleveur porcin et bovin lait","wiki":null,"postCode":25650,"city":"Maisons-du-Bois-Lièvremont","addr":"1 LIEU DIT LES RICORNES 25650 MAISONS DU BOIS LIEVREMONT","cat":"A","tel":"0675225809","email":"","web":"","suspect":0}
,{"lat":47.153027,"lng":6.067497,"name":"la ferme du poussin","txt":"La Ferme du Poussin est une structure paysanne et pédagogique qui cultive et transforme ses récoltes en délices, jus et vinaigres.","wiki":null,"postCode":25660,"city":"Les Monts-Ronds","addr":" 1 rue de la Combe du Berger 25660 Mérey-sous-Montrond ","cat":"ABO","tel":"0952336050","email":"","web":"http://lafermedupoussin.com/","suspect":0}
,{"lat":47.431478,"lng":6.783877,"name":"hello my bio","txt":"Laboratoire artisanal familial. Cosmétiques, Savons Saponifiés à froid, Produits d'entretien. Certifications Cosmos et UTZ. Matières premières éthiques Fairtrade, UTZ. Formulation et fabrication entièrement réalisées dans notre laboratoire en Franche-Comté. www.hellomybio.fr","wiki":null,"postCode":25700,"city":"Mathay","addr":" 225B Avenue Général De Gaulle 2","cat":"P","tel":"0381371211","email":"contact@hellomybio.fr","web":"https://www.hellomybio.fr","suspect":0}
,{"lat":47.314631,"lng":5.996165,"name":"Les Saveurs de la Ferme","txt":"","wiki":null,"postCode":25870,"city":"Châtillon-le-Duc","addr":"23 Rue Léon Baud Hameau de Cayenne 25870 Chatillon-le-Duc","cat":"AG","tel":"0381568425","email":"","web":"","suspect":0}
]}