{"id":85,"producers":[
{"lat":46.744544,"lng":-1.114478,"name":"le chèvre de sainte cécile/earl chevr'o'lait","web":"https://www.facebook.com/Le-chèvre-de-Ste-Cécile-EARL-Chevrolait-1496999037240437","txt":"Fromages de chèvre fermiers :\n- frais : nature ou aromatisés (papaye, figues, échalotes, ail et fines herbes, poivrons et poivre)\n- affinés : palets de différentes taille, bûchette cendrée ou non, crottins \n- fromage blanc de chèvre et faisselles\n- confiture de lait de chèvre","wiki":null,"tel":"0682959262","postCode":85110,"city":"Sainte-Cécile","addr":" 1 Rue de Mouchamps","cat":"A","email":"gael.perceval@laposte.net"}
,{"lat":46.736682,"lng":-1.143418,"name":"le jardin de fangorn","web":"","txt":"Le Jardin de Fangorn produit des légumes à Sainte-Cécile.","wiki":null,"tel":"0251402871","postCode":85110,"city":"Sainte-Cécile","addr":" La Noue","cat":"A","email":""}
,{"lat":46.77289625019685,"lng":1.1046698744974506,"name":"Gautier","web":"https://www.gautier.fr/fr_FR/","txt":null,"wiki":null,"tel":"0251485610","postCode":85110,"city":"Chantonnay","addr":"8 Rte de Nantes","cat":"O","email":"X"}
,{"lat":46.776491,"lng":-1.144893,"name":"ferme \"les alpines\"","web":"http://lesalpines.wix.com/fromagedechevre","txt":"Vente de fromages de chèvres: Frais, nature, cendré ou poivre - Demi-sec et crotin - Bûche - Tomme de chèvre","wiki":null,"tel":"0609648507","postCode":85140,"city":"Essarts en Bocage","addr":" Le Buisson 85140 Sainte-Florence ","cat":"A","email":"lesalpines@wanadoo.fr"}
,{"lat":46.764051,"lng":-1.403526,"name":"paul raimbault","web":"","txt":"L'exploitation agricole de Dompierre-sur-Yon produit et vend des légumes et de la viande bovine.","wiki":null,"tel":"0251412167","postCode":85170,"city":"Dompierre-sur-Yon","addr":" Les Petites Vergnes","cat":"A","email":"raimbaultpaul@yahoo.fr"}
,{"lat":46.686285,"lng":-1.526615,"name":"les jardins du puyrajoux","web":"","txt":"Production de fruits et légumes en philosophie permaculture. Vente directe les mardis et vendredis de 16h30 à 19h.","wiki":null,"tel":"0646796777","postCode":85190,"city":"Venansault","addr":" Le Puyrajoux","cat":"A","email":""}
,{"lat":46.6949,"lng":-1.800709,"name":"coeur de grange","web":"http://www.coeurdegrange.fr","txt":"Vente au magasin à la ferme le mardi, mercredi, jeudi, vendredi et samedi matin.\nBovins, ovins, volailles, porc, œufs de plein air et autre produits d'épicerie","wiki":null,"tel":"0771778091","postCode":85220,"city":"Coëx","addr":" 1 les Viollières ","cat":"A","email":"coeurdegrange@gmail.com"}
,{"lat":46.916086,"lng":-2.047776,"name":"serge renaud","web":"","txt":"Cultivateur de fruits et légumes, il confectionne compotes et confitures avec ses récoltes.","wiki":null,"tel":"0619034754","postCode":85230,"city":"Beauvoir-sur-Mer","addr":" 4 rue du Sableau","cat":"A","email":""}
,{"lat":46.874221,"lng":-1.322954,"name":"apisam","web":"http://www.apisam.fr","txt":"Pâtisserie Fabrication Artisanale Bio, Pain d'épices et de Gâteaux secs, adaptation sans gluten et diabétique.","wiki":null,"tel":"0689291097","postCode":85260,"city":"Les Brouzils","addr":" 11 Rue du four","cat":"A","email":"apisam@orange.fr"}
,{"lat":46.827284,"lng":-1.983528,"name":"la ferme du pré tords","web":"","txt":"Nous élevons nos vaches Maraîchines en prairies naturelles dans le marais Breton Vendéen. Soucieux d'une préservation de la Biodiversité et de son maintien nous n'administrons pas vermicide ni de chimie dans notre environnement et sur nos animaux.\nNotre viande, de qualité, est proposée en vente directe sur commande par colis de 5kg/10kg.\nPour cela nous contacter : lafermedupretords@gmail.com","wiki":null,"tel":"0625303333","postCode":85300,"city":"Le Perrier","addr":" 102 chemin de Bel Air","cat":"A","email":"lafermedupretords@gmail.com"}
,{"lat":46.607668,"lng":-1.433231,"name":"les agrobates","web":"http://lesagrobates.fr","txt":"Ravivez vos papilles avec des fruits et légumes certifiés AB, cultivés et récoltés en Vendée ! Fabrication de sirops naturels, sauces ou encore légumes cuisinés…  \n\nProducteurs à Nesmy, commune située à 5 minutes de La Roche sur Yon et à 30 minutes des Sables d'Olonne. \n\nVente directe à la ferme les mardis et vendredis, de 16h à 19h et au marché des Halles centrales aux Sables d'Olonne.\n\nPaniers composés ou vente au détail. Plus d'informations sur www.lesagrobates.fr\n\nAu plaisir","wiki":null,"tel":"0685352378","postCode":85310,"city":"Nesmy","addr":" Beauséjour ","cat":"A","email":"lesagrobates@gmail.com"}
,{"lat":46.61628,"lng":-1.193831,"name":"les fées des herbes","web":"","txt":"Production de plantes aromatiques et médicinales","wiki":null,"tel":"0785854172","postCode":85320,"city":"Les Pineaux","addr":" 1 La petite Guyornière ","cat":"A","email":"lesfeesdesherbes85@gmail.com"}
,{"lat":46.728486,"lng":-2.357893,"name":"le jardin de l'amer","web":"","txt":"Le Jardin de l'Amer est spécialisé dans l'horticulture maraîchère et l'aviculture.","wiki":null,"tel":"0251583495","postCode":85350,"city":"L'Île-d'Yeu","addr":" Les Bossiles 14 impasse du Goron","cat":"A","email":""}
,{"lat":46.620722,"lng":-0.915243,"name":"le rucher d' happy fred","web":"","txt":"Fred Joyeux, apiculteur-récoltant en Vendée. Production et vente de MIEL DE VENDÉE, confiseries au miel et produits de la ruche.","wiki":null,"tel":"0679102075","postCode":85410,"city":"La Caillère-Saint-Hilaire","addr":" 9 rue du Prieuré ","cat":"A","email":"lerucherdhappyfred@gmail.com"}
,{"lat":46.594441,"lng":-0.856382,"name":"fromagerie du purdeau","web":"","txt":"Nous sommes éleveurs de chèvres depuis 20 ans. Nous avons mis en place une petite fromagerie il y a 4 ans. Nos fromages sont au lait cru, moulés à la louche.\nNotre gamme de fromages est la suivante :\n- le frais nature\n- le frais aux herbes ( échalote, ail, ciboulette, poivre, ail et fines herbes, etc  ....\n- les affinés (une médaille de bronze obtenue en 2014 au concours de St maixent l'école )","wiki":null,"tel":"0251527318","postCode":85410,"city":"Thouarsais-Bouildroux","addr":" le purdeau","cat":"A","email":"denis.lemire@neuf.fr"}
,{"lat":46.543168,"lng":-1.496931,"name":"vergers de la brunetière","web":"http://www.terredebrunetiere.com/","txt":"Les Verges de la Brunetière cultivent des fruits biologiques.","wiki":null,"tel":"0251095683","postCode":85430,"city":"Nieul-le-Dolent","addr":" La Brunetière ","cat":"A","email":"contact@terredebrunetiere.com"}
,{"lat":46.37431,"lng":-1.086441,"name":"pépinière rainbow","web":"https://www.pepiniere-rainbow.com","txt":"Productrice de plantes comestibles et ornementales.","wiki":null,"tel":"0760524667","postCode":85450,"city":"Puyravault","addr":" 12 RUE GALERNE","cat":"A","email":"pepiniere.rainbow@gmail.com"}
,{"lat":46.864453,"lng":-2.096567,"name":"nicolas cluet","web":"","txt":"Producteur spécialisé dans la fabrication de viandes et charcuteries et la culture de fruits et légumes.","wiki":null,"tel":"0964209137","postCode":85550,"city":"La Barre-de-Monts","addr":" Les Blanches","cat":"A","email":""}
,{"lat":46.904306,"lng":-0.903975,"name":"gustin, producteurs fermiers","web":"https://gustin-producteurs.fr/","txt":"Créée en 1979 à Saint-Malo-du-Bois, l’exploitation s’est implantée sur la commune voisine des Epesses en 2019. Depuis, elle se spécialise avec la vente directe de produits fermiers (volailles, agneaux et porcs) mais aussi de produits laitiers (fromages de brebis), en Vendée. Vos producteurs associés, Rémy et ses fils David et Pierre, ont l’honneur de vous faire découvrir leur exploitation nouvellement convertie en agriculture biologique ainsi que leurs divers produits fermiers.","wiki":null,"tel":"0660674516","postCode":85590,"city":"Les Epesses","addr":" la lardière ","cat":"A","email":"contact@gustin-producteurs.fr"}
]}