{"id":74,"producers":[
{"lat":45.902438,"lng":6.124985,"name":"fleurs & miel","txt":"Je suis un producteur local, installé à Annecy 74, et je vous propose de vous présentez notre gamme de 5 miels infusés au plantes des Alpes.\n\nJe réalise une infusion à froid avec un miel biologique et des plantes naturelles : Génépi, Sureau, Thym, Reine-des-pré, Lavande.\n\nJ'ai sélectionné un miel d'Acacia produit en Haute-Savoie et des plantes cueillies en Haute-Savoie.\n\nCe mélange est affiné entre 6 et 8 semaines dans nos futs avant d'être filtré et mise en pot à la main.\n\nLe résultats est un mariage de saveurs et de bienfaits. Notre production à un bilan carbone très faible.","wiki":null,"postCode":74000,"city":"Annecy","addr":" 37 rue Cassiopée ","cat":"AA","tel":"0645284200","email":"","web":"","suspect":1}
,{"lat":45.918523,"lng":6.124597,"name":"ATELIER LES RENCONTRES COLORÉES","txt":"Céramiste","wiki":null,"postCode":74000,"city":"Annecy","addr":"59, rue des Alpins, ","cat":"OP","tel":"0683792181","email":"desmaraisgisele@orange.fr","web":"","suspect":0}
,{"lat":45.90804,"lng":6.119086,"name":"LE JARDIN DES MODES","txt":"Tailleur-couturier","wiki":null,"postCode":74000,"city":"Annecy","addr":"20, rue Fabien Calloud, ","cat":"OE","tel":"0450573011","email":"rosine@lejardindesmodes.fr","web":"http://www.lejardindesmodes.fr","suspect":0}
,{"lat":45.912147,"lng":6.117494,"name":"Au Rendez-vous du Terroir","txt":"Produits : Rayon bio, Fruits, Légumes, Viandes, Traiteur et charcuterie, Volaille et lapin, Fromages, Oeufs et produits laitiers, Miels et confitures, Huiles et vinaigres, Épicerie, Vins et alcools, Jus et sirops","wiki":null,"postCode":74000,"city":"Annecy","addr":"52 avenue des Iles ","cat":"AG","tel":"0450575443","email":"","web":"https://www.aurendezvousduterroir.fr","suspect":0}
,{"lat":46.197534,"lng":6.235613,"name":"ATELIER DE LUTHERIE LUC HAEUW","txt":"Luthier en guitare","wiki":null,"postCode":74100,"city":"Annemasse","addr":"1 rue de la Faucille, ","cat":"OL","tel":"0684689581","email":"","web":"","suspect":1}
,{"lat":46.202741,"lng":6.249066,"name":"ATELIER VITRAIL DU LEMAN","txt":"Restaurateur de vitraux","wiki":null,"postCode":74100,"city":"Ville-la-Grand","addr":"1 RUE DU COMMERCE, 74100 VILLE LA GRAND","cat":"OR","tel":"0620666270","email":"contact@ateliervitrailduleman.com","web":"http://www.ateliervitrailduleman.com","suspect":0}
,{"lat":46.114845,"lng":6.366289,"name":"laboratoire daliane","txt":"Le Laboratoire Daliane crée et fabrique des cosmétiques au lait d'ânesse Bio.","wiki":null,"postCode":74130,"city":"Faucigny","addr":" Chez Perai","cat":"AF","tel":"0667112958","email":"","web":"","suspect":1}
,{"lat":46.331567,"lng":6.352854,"name":"maison belmaraicher","txt":"Petit producteur familiale depuis 1969 cultivant des fruit et légumes de saison. Sur la ferme vous vous y trouver de nos produits ainsi que des produits de collègues producteur de lait, yaourt fermier miel....","wiki":null,"postCode":74140,"city":"Sciez","addr":" 426 chemin de la foret","cat":"AM","tel":"0450726036","email":"","web":"","suspect":0}
,{"lat":46.349476,"lng":6.356222,"name":"DAUVET S.A.","txt":" Batteur d'or (Tireur d'or)","wiki":null,"postCode":74140,"city":"Excenevex","addr":"Route du bord du lac - Batterie d'or, 74140 EXCENEVEX","cat":"OB","tel":"0450728101","email":"","web":"","suspect":1}
,{"lat":45.88698,"lng":5.896494,"name":"les trésors d'abeilles nathalie masse","txt":"Productrice et récoltante des produits de la ruche. Gelée royale, miel et pollen. \nProduction locale et transformation des produits de la ruches.\nPains d'épices, nougats, bonbons, biscuits à base de miel.\nPARRAINAGE DES ABEILLES, pour consommer votre miel ( contacter l'apicultrice pour plus de renseignements)","wiki":null,"postCode":74150,"city":"Moye","addr":" 461 route de Magny","cat":"AA","tel":"0450644191","email":"lestresorsdabeilles@laposte.net","web":"","suspect":0}
,{"lat":46.143763,"lng":6.139192,"name":"Ô Champs Paysans","txt":"Produits : Rayon bio","wiki":null,"postCode":74160,"city":"Collonges-sous-Salève","addr":"350 Route de Rozon ","cat":"AG","tel":"0450350597","email":"","web":"https://www.facebook.com/%C3%94Champs-Paysans-386997251737834/","suspect":0}
,{"lat":46.372169,"lng":6.478131,"name":"ATELIER DE MOSAÏQUE YVES DECOMPOIX","txt":" Mosaïste","wiki":null,"postCode":74200,"city":"Thonon-les-Bains","addr":"4, rue Pasteur, ","cat":"OE","tel":"0612672518","email":"","web":"","suspect":1}
,{"lat":46.3708,"lng":6.482199,"name":"Bijouterie MERIGUET","txt":"Polisseur","wiki":null,"postCode":74200,"city":"Thonon-les-Bains","addr":"1, Boulevard Georges Andrier, ","cat":"OB","tel":"0450713241","email":"v.meriguet@gmail.com","web":"","suspect":1}
,{"lat":46.334722,"lng":6.485683,"name":"Nos Fermes du Chablais","txt":"","wiki":null,"postCode":74200,"city":"Allinges","addr":"463 Route des Blaves ","cat":"AG","tel":"0450164324","email":"","web":"","suspect":1}
,{"lat":45.758543,"lng":6.28192,"name":"confidences d'abeilles","txt":"Confidences d'Abeilles c'est le rêve de deux frères, celui de produire leur propre miel, un miel authentique et issu de leur terroir. Aujourd'hui ils partagent le fruit de rêve : miel, pollen et propolis sont de véritables trésors naturels. Récoltés traditionnellement, dans le respect des colonies qui évoluent dans l'environnement préservé du Lac d’Annecy, ces produits sont profondément authentiques ; ils entrent dans la composition d’une gamme de cosmétiques naturels.","wiki":null,"postCode":74210,"city":"Faverges-Seythenex","addr":" 319 chemin des plantées 74210 Faverges ","cat":"AA","tel":"","email":"contact@confidencesdabeilles.fr","web":"","suspect":1}
,{"lat":45.866255,"lng":6.327657,"name":"THUY-HA BUI","txt":"Fabricant d'objets décoratifs en tissus (patchworks, tissus appliqués, coussins, drapeaux.)","wiki":null,"postCode":74230,"city":"Thônes","addr":"Route du Fraizier, ","cat":"OE","tel":"0621636511","email":"archibocreations@free.fr","web":"","suspect":1}
,{"lat":46.177431,"lng":6.421237,"name":"les ruchers d'amélie","txt":"Apicultrice installée sur la commune de Viuz-en-Sallaz\nVente directe de miels de haute-savoie et produits de la ruche.","wiki":null,"postCode":74250,"city":"Viuz-en-Sallaz","addr":" 234 chemin de chez Pallud","cat":"AA","tel":"","email":"","web":"http://www.lesruchersdamelie.fr","suspect":0}
,{"lat":46.066949,"lng":5.998589,"name":"coeur nature","txt":"Culture et cueillette de plantes aromatiques et médicinales avec certification agriculture biologique et slow cosmétique. \nTransformation en cosmétiques (sérums visages, huiles corps et massage, baumes), tisanes et aromates.","wiki":null,"postCode":74270,"city":"Minzier","addr":" 2021c route des hameaux","cat":"P","tel":"0614771642","email":"Contact@coeurnature.fr","web":"https://www.coeurnature.fr","suspect":0}
,{"lat":46.012806,"lng":5.974823,"name":"distill'rêve","txt":"Productrice de plantes aromatiques et médicinales en agriculture biologique, toutes les plantes sont cultivées et cueillies avec soin, dans le respect des cycles naturels et de la biodiversité. \n\nAvec ces plantes, je vous propose différents produits naturels que je transforme dans mon atelier : Tisanes, Aromates, Sirops de plantes, Liqueurs, Hydrolats, Huiles de massage","wiki":null,"postCode":74270,"city":"Contamine-Sarzin","addr":" 251 chemin sur la tour","cat":"ABO","tel":"0661925971","email":"distillreve@lilo.org","web":"https://www.distillreve.fr","suspect":0}
,{"lat":45.872973,"lng":6.211123,"name":"LE SOUFFLE DE VERRE","txt":"Verrier à la main","wiki":null,"postCode":74290,"city":"Menthon-Saint-Bernard","addr":"100 route des Penoz, ","cat":"OE","tel":"0673164237","email":"maryline.vittori@free.fr","web":"","suspect":1}
,{"lat":45.986233,"lng":6.001308,"name":"le fournil des paysans","txt":"Paysans Meuniers Boulangers\nPains et brioches au levain naturel cuits au feu de bois\nFarines de blés, blés anciens, petit épeautre, seigle","wiki":null,"postCode":74330,"city":"Mésigny","addr":" 120 Rue du Grand Pré ","cat":"AC","tel":"0611713949","email":"lefournildespaysans@gmail.com","web":"","suspect":0}
,{"lat":46.019272,"lng":6.107054,"name":"le miel de papi","txt":"apiculteur amateur je produis du miel chaque année. du miel que je vend sur le marche de cruseilles les jeudi et dimanche et viry le samedi.j'y fais aussi partager ma passion.","wiki":null,"postCode":74350,"city":"Cruseilles","addr":" 222 chemin des moyettes le noiret 74350 cruseilles","cat":"AA","tel":"0609997138","email":"","web":"","suspect":0}
,{"lat":46.034085,"lng":6.107824,"name":"bouchet freres","txt":"Producteurs de légumes fleurs et plants de légumes à Cruseilles.","wiki":null,"postCode":74350,"city":"Cruseilles","addr":" Féchy ","cat":"AM","tel":"0450441023","email":"bouchet.fleurs@orange.fr","web":"http://www.bouchetfreres.com","suspect":0}
,{"lat":46.033661,"lng":6.106951,"name":"Terre Ferme","txt":"","wiki":null,"postCode":74350,"city":"Cruseilles","addr":"Place de la mairie ","cat":"AG","tel":"0450323491","email":"","web":"","suspect":0}
,{"lat":46.191191,"lng":6.319228,"name":"brasserie des voirons","txt":"Fabrication de bières artisanales (bière blonde, rousse, blanche et brune) à Lucinges.","wiki":null,"postCode":74380,"city":"Lucinges","addr":" 91 chemin du Château ","cat":"AB","tel":"0616224765","email":"labrasseriedesvoirons@orange.fr","web":"","suspect":1}
,{"lat":45.921742,"lng":6.863556,"name":"DE PLEIN GRÈS SARL","txt":"Potier de terre cuite","wiki":null,"postCode":74400,"city":"Chamonix-Mont-Blanc","addr":"Eugène Combes Atelier du Pénitent Blanc, 19800 CORRÈZE","cat":"OP","tel":"0555216795","email":"depleingres@free.fr","web":"http://depleingres.free.fr","suspect":0}
,{"lat":46.194804,"lng":6.39652,"name":"le fournil du chêne vert","txt":"Production de pains au pur levain, aux farines biologiques sur meule de pierre,  de fermes de Haute-Savoie\nProduction de viennoiseries au levain, au beurre local et aux farines biologiques sur meule de pierre","wiki":null,"postCode":74420,"city":"Saint-André-de-Boëge","addr":" 470 route de chez le Cadet","cat":"AC","tel":"0749628812","email":"lefournilduchenevert@net-c.com","web":"","suspect":0}
,{"lat":46.207547,"lng":6.406929,"name":"la ferme de la source","txt":"La Ferme de la Source est une exploitation agricole qui s’étend sur environ 8 hectares entre les communes de Boëge, Saint-André de Boëge et Burdignin.\nSensibles à la notion de protection de l’environnement et de développement durable, nous misons sur des techniques culturales et de production naturelles avec un large choix variétale. Nous sommes certifiés selon le label AB – Agriculture Biologique et portons une attention particulière à la qualité de nos produits.\nC’est une des raisons qui nous a poussé à commercialiser notre production en circuit court, directement auprès des consommateurs ou des restaurants de la région sous forme de paniers de saison.","wiki":null,"postCode":74420,"city":"Boëge","addr":" 163 Rue de la Menoge","cat":"A","tel":"0972287937","email":"r.reymond@delasource.net","web":"https://www.facebook.com/lafermedelasource74420","suspect":0}
,{"lat":46.259739,"lng":6.531143,"name":"eurl la ferme du petit mont","txt":"Ferme en agriculture Bio\nChevrotin sous A.O.P.\nFabrication de fromages et desserts de chèvre, de charcuterie et viande de porc élevés en plein air.","wiki":null,"postCode":74470,"city":"Bellevaux","addr":" 746 Rte de la côte La ferme du petit mont ","cat":"AV","tel":"0450737604","email":"info@lfpm.fr","web":"https://www.lafermedupetitmont.fr","suspect":0}
,{"lat":46.277633,"lng":6.506896,"name":"ferme du mont forchat","txt":"fabrication et affinage de tomme, de reblochon, d'abondance, de raclette et des petits frais enrobés","wiki":null,"postCode":74470,"city":"Lullin","addr":" 70 chemin de vauverdanne, les courbes","cat":"A","tel":"0650543005","email":"gerola.bruno@orange.fr","web":"http://www.fermedumontforchat.fr","suspect":0}
,{"lat":46.394734,"lng":6.633676,"name":"ART-DE-PIERRE - EURL PHILIPPE BOUVET - BEATRICE SASSONE","txt":"Tailleur de pierre","wiki":null,"postCode":74500,"city":"Maxilly-sur-Léman","addr":"20, chemin du moulin, 74500 Maxilly sur Léman","cat":"OZ","tel":"0450701179","email":"bouvet.sarl@wanadoo.fr","web":"","suspect":1}
,{"lat":46.351091,"lng":6.610599,"name":"GEORGES SARRAS BOURNET","txt":" Sellier","wiki":null,"postCode":74500,"city":"Vinzier","addr":"Le Chomieux, ","cat":"OT","tel":"0450731537","email":"gsarrasbournet@formation-metier-sellier.com","web":"http://www.formation-metier-sellier.com","suspect":0}
,{"lat":45.75249,"lng":6.080479,"name":"DECOR EVASION Aline Morancho","txt":" Peintre en décor","wiki":null,"postCode":74540,"city":"Allèves","addr":"4 chemin du Trémolard, 74540 ALLEVES","cat":"OE","tel":"0685947967","email":"decorevasion.am@gmail.com","web":"https://decor-evasion-am.com","suspect":0}
,{"lat":46.285261,"lng":6.441921,"name":"Atelier Ozalie","txt":" Peintre sur bois","wiki":null,"postCode":74550,"city":"Cervens","addr":"32 rue du Cercle, ","cat":"OO","tel":"0634319101","email":"atelierozalie@yahoo.com","web":"","suspect":1}
,{"lat":46.135534,"lng":6.214861,"name":"l'effet papillon","txt":"L'effet papillon propose des produits frais et d'épicerie en circuit court. La majorité d'entre eux est locale. Il est privilégié les petites exploitations agricoles ou petites entreprises aux projets écoresponsables. Idéal pour faire ses courses autrement via un site internet ou la présence sur quelques marchés.","wiki":null,"postCode":74560,"city":"Monnetier-Mornex","addr":" 6, chemin de la chapelle de Naz","cat":"A","tel":"0752042967","email":"contact@leffet-papillon74.fr","web":"https://www.leffet-papillon74.fr","suspect":0}
,{"lat":46.145318,"lng":6.219389,"name":"Patine & Restauration","txt":"Restaurateur de meubles","wiki":null,"postCode":74560,"city":"Monnetier-Mornex","addr":"1153 Chemin des Dessous, 74560 Esserts-Salève","cat":"OO","tel":"0616551281","email":"contact@patine-restauration.com","web":"http://www.patine-restauration.com","suspect":0}
,{"lat":45.886531,"lng":6.079134,"name":"sébastien varmer bermond","txt":"L'exploitation agricole de Seynod est spécialisé dans l'horticulture maraîchère.","wiki":null,"postCode":74600,"city":"Annecy","addr":" 27 chemin des Césardes 74600 Seynod ","cat":"AM","tel":"0450652298","email":"","web":"","suspect":0}
,{"lat":45.883003,"lng":6.089981,"name":"C’ Nos Terroirs","txt":"","wiki":null,"postCode":74600,"city":"Annecy","addr":"67 avenue des Neigeos 74600 Seynod","cat":"AG","tel":"0450335645","email":"","web":"","suspect":0}
,{"lat":46.077463,"lng":6.305864,"name":"FORGE ET DESIGN","txt":"Métallier - Serrurrier","wiki":null,"postCode":74800,"city":"La Roche-sur-Foron","addr":"Impasse du Muguet ZI Dragiez, ","cat":"OM","tel":"0450375949","email":"","web":"","suspect":1}
,{"lat":46.065422,"lng":6.313763,"name":"SAUMAGNE NICOLAS & AGNÈS","txt":"Luthier","wiki":null,"postCode":74800,"city":"La Roche-sur-Foron","addr":"5 place de l'Hôpital, ","cat":"OL","tel":"0450258662","email":"saumagne.luthier@orange.fr","web":"http://www.luthier-archetier.com","suspect":0}
,{"lat":46.087679,"lng":6.223235,"name":"les jardins du salève","txt":"Les Jardins du Salève proposent fruits et légumes, plantes aromatiques et œufs.","wiki":null,"postCode":74930,"city":"Arbusigny","addr":" 360 chemin de la Tour","cat":"AM","tel":"0450945370","email":"","web":"","suspect":0}
,{"lat":45.898047,"lng":6.10991,"name":"vert de terre 74","txt":"Ferme de maraichage bio à Vallières Haute Savoie\nLégumes bio local et de saison. Nous sommes sur le marché d'Annecy en vieille ville le mardi et le vendredi.\nNous transformons aussi  notre production et la cueillette sauvage: pesto ail des ours ou basilic. crèmeux d'ail, d'échalote ou d'oignon. Coulis de tomates...\nVous pouvez aussi commander Contactez nous directement vertdeterre74@free.fr","wiki":null,"postCode":74960,"city":"Annecy","addr":" 5 rue du onze novembre 74000 Annecy ","cat":"AM","tel":"0773094915","email":"vertdeterre74@free.fr","web":"https://www.facebook.com/profile.php?id=100071449876097","suspect":0}
]}