{"id":28,"producers":[
{"lat":48.133544,"lng":1.653912,"name":"la ferme des bleuets","web":"http://www.fermedesbleuets.org/","txt":"La Ferme des Bleuets est spécialisée dans la production d’œufs et lentilles.","wiki":null,"tel":"0237998617","postCode":28140,"city":"Courbehaye","addr":" 16 LD Villepéreux ","cat":"A","email":"fermedesbleuets@orange.fr"}
,{"lat":48.169145,"lng":1.666142,"name":"Lefebvre Horticulture","web":"","txt":"","wiki":null,"tel":"0625898057","postCode":28140,"city":"Fontenay-sur-Conie","addr":"Route de Voves ","cat":"A","email":""}
,{"lat":48.32627,"lng":1.786348,"name":"Fabien Varet","web":"","txt":"","wiki":null,"tel":"0658171064","postCode":28150,"city":"Louville-la-Chenard","addr":"8 rue des Quatre Ormes 28150 Louville-laChenard","cat":"A","email":""}
,{"lat":48.197841,"lng":1.29069,"name":"espace gazon","web":"https://www.espacegazon.fr/","txt":"Vente en direct de Gazon Naturel en Rouleau pour végétaliser rapidement votre jardin. Sur commande uniquement pour vous garantir la fraîcheur de notre produit.","wiki":null,"tel":"0237967272","postCode":28160,"city":"Dangeau","addr":" Grissay","cat":"A","email":""}
,{"lat":48.588794,"lng":1.453111,"name":"Les Volailles de la Garenne","web":"","txt":"","wiki":null,"tel":"0650169493","postCode":28170,"city":"Serazereux","addr":"La Garenne ","cat":"A","email":""}
,{"lat":48.623884,"lng":1.532536,"name":"ysamea création","web":"https://www.ysameacreation.com/","txt":"Créatrice d'objets et vêtements bien-être et confort dans l'esprit cocooning.","wiki":null,"tel":"0684277552","postCode":28210,"city":"Nogent-le-Roi","addr":" 14 Grande rue, Vacheresses les Basses, 28210 Nogent le roi","cat":"A","email":"ysamea@gmail.com"}
,{"lat":48.852774,"lng":1.461969,"name":"","web":"","txt":"","wiki":null,"tel":"0698869352","postCode":28260,"city":"Boncourt","addr":"ROUTE D'OULINS, LA VENTROUILLERIE 28260 BONCOURT","cat":"A","email":""}
,{"lat":48.14628,"lng":1.097167,"name":"GAEC DU MOUSSEAU","web":"","txt":"","wiki":null,"tel":"0625281245","postCode":28290,"city":"Vald'Yerre","addr":"Le Mousseau 28290 Arrou","cat":"A","email":""}
,{"lat":48.454228,"lng":1.471173,"name":"EARL Les jardins de Chartres","web":"","txt":"","wiki":null,"tel":"0237214240","postCode":28300,"city":"Mainvilliers","addr":"Entre Mainvilliers et Seresville ","cat":"A","email":""}
,{"lat":48.34474,"lng":1.842405,"name":"La Ferme de Beauce","web":"","txt":"","wiki":null,"tel":"0750433033","postCode":28310,"city":"Gouillons","addr":"Route de Léthuin ","cat":"A","email":""}
,{"lat":48.207424,"lng":0.91166,"name":"la ferme des bonshommes","web":"http://www.lesbonshommes.fr","txt":"Nous sommes éleveurs de porcs dans le Perche (28).\n\nNous avons développé une activité de découpe et de transformation artisanale à la ferme.\nNous vendons notre charcuterie et notre viande de porcs en direct à la ferme et sur les marchés.\n\nPour proposer plus de produits, nous avons souhaité nous approvisionner auprès de producteurs fermiers proches de notre exploitation (viande bovine, agneau...)","wiki":null,"tel":"0237499226","postCode":28330,"city":"Authon-du-Perche","addr":" les bonshommes","cat":"A","email":"les-bonshommes@wanadoo.fr"}
,{"lat":48.345093,"lng":1.55992,"name":"SCEA Bigot-Vovette","web":"","txt":"","wiki":null,"tel":"0237260087","postCode":28360,"city":"Theuville","addr":"22 rue de Mathoré Vovette ","cat":"A","email":""}
,{"lat":48.810692,"lng":1.561408,"name":"pâtes'atras","web":"","txt":"Agriculteur et producteur de pâtes fermière semis complètes.\nDu champs à l'assiette avec le propre blé dur de l exploitation, transformé en pâtes puis séché.","wiki":null,"tel":"0671119684","postCode":28410,"city":"Saint-Lubin-de-la-Haye","addr":" 10 rue du Châtelet ","cat":"A","email":"Patesatras@gmail.com"}
,{"lat":48.263943,"lng":0.952106,"name":"Ferme des Vitriers","web":"","txt":"","wiki":null,"tel":"","postCode":28480,"city":"Argenvilliers","addr":"Gaël CHABOCHE","cat":"A","email":""}
,{"lat":48.744711,"lng":1.422156,"name":"Ferme Benoist Distribution","web":"","txt":"","wiki":null,"tel":"0659949970","postCode":28500,"city":"Cherisy","addr":"2 rue de la régie 28500  MARSAUCEUX","cat":"A","email":""}
,{"lat":48.43543,"lng":1.526993,"name":"exquis punch","web":"https://exquispunch.com/","txt":"À base de rhum, de fruits Premium,  et d'épices qui viennent sublimer le tout, EXQUIS est la nouvelle star de l'apéro. Fraîcheur, douceur, saveur, le tout y 'est afin de vous faire passer un excellent moment , direction les tropiques. Confectionnée prêt de Chartres en Eure et Loir (28) notre production reste artisanale.","wiki":null,"tel":"0781907361","postCode":28630,"city":"Gellainville","addr":" 20 Av. Gustave Eiffel, 28630 Gellainville","cat":"A","email":"contact@exquispunch.com"}
,{"lat":48.172846,"lng":1.410841,"name":"Microbrasserie du Glandin","web":"","txt":"","wiki":null,"tel":"0632364756","postCode":28800,"city":"Bonneval","addr":"Le Glandin ","cat":"A","email":""}
,{"lat":48.190094,"lng":1.574543,"name":"EARL LAVO","web":"","txt":"","wiki":null,"tel":"0237440153","postCode":28800,"city":"Sancheville","addr":"adresse non fournie 28800 SANCHEVILLE","cat":"A","email":""}
]}