{"id":43,"producers":[
{"lat":45.295185,"lng":3.390527,"name":"les jardins de maxime","web":"","txt":"Maraîchage diversifié ( légumes, fruits rouges, fleurs, aromates, plants...)\nRetrouvez moi au pieds des marches de la mairie à Brioude tous les samedis matins (Avril à Novembre) pour le marché hebdomadaire, ou directement au jardin 2 rue Gabriel Péri à Brioude les mercredis de 16h00 à 19h00 (produits d'épicerie, pain etc. également disponible sur place)","wiki":null,"tel":"0678807516","postCode":43100,"city":"Brioude","addr":" 2 rue Gabriel Péri ","cat":"AM","email":"Lesjardinsdemaxime@yahoo.com"}
,{"lat":45.26266,"lng":3.453705,"name":"FlorVital","web":"","txt":"","wiki":null,"tel":"0471767583","postCode":43100,"city":"Lavaudieu","addr":"Place Saint-André ","cat":"A","email":""}
,{"lat":45.32357,"lng":4.169229,"name":"","web":"","txt":"","wiki":null,"tel":"0471584418","postCode":43120,"city":"Monistrol-sur-Loire","addr":"Le Bruchet 43120 Monistrol sur Loire","cat":"A","email":""}
,{"lat":45.295247,"lng":4.195836,"name":"Pépinières Fournel","web":"","txt":"","wiki":null,"tel":"0471616880","postCode":43120,"city":"Monistrol-sur-Loire","addr":"Le Cordu ","cat":"A","email":""}
,{"lat":45.223041,"lng":4.068651,"name":"de la graine aux paniers","web":"","txt":"De la Graine aux Paniers a pour activité le maraîchage et la confection de produits dérivés (pain, pâte,...).","wiki":null,"tel":"0471615241","postCode":43130,"city":"Retournac","addr":" Lieu-dit la Bourange","cat":"AM","email":""}
,{"lat":44.903354,"lng":3.937711,"name":"","web":"","txt":"","wiki":null,"tel":"0668651610","postCode":43150,"city":"Saint-Martin-de-Fugères","addr":"Auteyrac ","cat":"A","email":""}
,{"lat":45.338418,"lng":3.694711,"name":"la ferme des mellys","web":"http://www.gebnout.fr/","txt":"La Ferme des Mellys confectionne une gamme de produits 100 % végétale composée de plantes sauvages et céréales de variétés anciennes.","wiki":null,"tel":"0471000845","postCode":43160,"city":"La Chaise-Dieu","addr":" Baffour","cat":"A","email":""}
,{"lat":45.130096,"lng":4.252299,"name":"","web":"","txt":"","wiki":null,"tel":"0471560373","postCode":43190,"city":"Chenereilles","addr":"Le Suchairoux ","cat":"A","email":""}
,{"lat":45.094144,"lng":4.054813,"name":"jardins de l'herm","web":"https://www.facebook.com/jorisduclaut","txt":"Maraîcher sur la commune du Pertuis, je propose une gamme d'une trentaine de légumes + plants d'Arnica Montana. Vente à la ferme le mercredi et vendredi soir.","wiki":null,"tel":"0680685061","postCode":43200,"city":"Le Pertuis","addr":" L'herm","cat":"AM","email":"jorisduclaut@hotmail.fr"}
,{"lat":45.140168,"lng":4.154185,"name":"L'Escargot d'Yssi","web":"","txt":"","wiki":null,"tel":"0631791975","postCode":43200,"city":"Yssingeaux","addr":"Le Neyrial ","cat":"A","email":""}
,{"lat":45.089847,"lng":4.156806,"name":"","web":"","txt":"","wiki":null,"tel":"0603951081","postCode":43200,"city":"Araules","addr":"leygat 43200 araules","cat":"A","email":""}
,{"lat":45.190931,"lng":4.380224,"name":"Virginie Lauret","web":"","txt":"","wiki":null,"tel":"0631631845","postCode":43220,"city":"Dunières","addr":"Limenesse ","cat":"A","email":""}
,{"lat":45.047533,"lng":4.029424,"name":"biofloral","web":"http://www.biofloral.fr/","txt":"BIOFLORAL se consacre à l'élaboration manuelle et artisanale de produits naturels et 100% Bio (huiles essentielles, baumes,...).","wiki":null,"tel":"0471030949","postCode":43260,"city":"Saint-Pierre-Eynac","addr":" Les Jardins d'Espaladous Le Crouzet","cat":"A","email":""}
,{"lat":45.016186,"lng":4.071611,"name":"jardin de la tortue","web":"","txt":"Le Jardin de la Tortue cultive fruits et légumes et vend des produits dérivés (chutneys, boissons,...).","wiki":null,"tel":"0471034220","postCode":43260,"city":"Saint-Julien-Chapteuil","addr":" Lieu-dit Tiboulet 43260 Montusclat ","cat":"AM","email":""}
,{"lat":45.060277,"lng":4.108368,"name":"escargots des sucs","web":"","txt":"","wiki":null,"tel":"0670565171","postCode":43260,"city":"Queyrières","addr":"monedeyres les hautes ","cat":"A","email":""}
,{"lat":45.116676,"lng":3.644864,"name":"les ruches du haut-allier","web":"https://www.facebook.com/RuchesHtAllier/","txt":"Apiculteur professionnel implanté en Auvergne, dans les gorges de l'Allier :\n- Vente directe de produits de la ruche,\n- Transformation alimentaire,\n- Service de pollinisation.","wiki":null,"tel":"0781048080","postCode":43300,"city":"Vissac-Auteyrac","addr":" Lachaud-Curmilhac","cat":"AA","email":"RuchesHtAllier@gmail.com"}
,{"lat":45.061846,"lng":3.643967,"name":"joel clavel","web":"","txt":"Cultivateur de légumineuse, il confectionne des produits laitiers issue du lait de vache.","wiki":null,"tel":"0471742965","postCode":43300,"city":"Siaugues-Sainte-Marie","addr":" Lieu-dit Rilhac","cat":"AF","email":""}
,{"lat":45.130235,"lng":3.822126,"name":"david chalendard","web":"","txt":"Maraîcher horticulteur, il cultive légumineuses et oléo-protéagineux à Saint-Paulien.","wiki":null,"tel":"0661305202","postCode":43350,"city":"Saint-Paulien","addr":" Vialette","cat":"AM","email":""}
,{"lat":45.134433,"lng":3.449402,"name":"edouard mortier","web":"","txt":"Maraîcher horticulteur à Aubazat, il propose également des plants.","wiki":null,"tel":"0471774593","postCode":43380,"city":"Aubazat","addr":" Lieu-dit Francon","cat":"AM","email":""}
,{"lat":45.382,"lng":3.445,"name":"Helpac","web":"","txt":"","wiki":null,"tel":"0471761381","postCode":43390,"city":"Saint-Hilaire","addr":"Le Pin ","cat":"A","email":""}
,{"lat":45.319266,"lng":3.166093,"name":"brasserie alagnon","web":"http://www/brasserie-alagnon.fr","txt":"La Brasserie Alagnon confectionne des bières de fermentation haute, non filtrées, refermentées en bouteilles ou en fûts sous le nom de \"la Damoizelle\".","wiki":null,"tel":"0471741890","postCode":43450,"city":"Blesle","addr":" La Bonale","cat":"AB","email":"brasserie.alagnon@gmail.com"}
,{"lat":45.267374,"lng":4.007575,"name":"les huiles essentielles de cherchebrot","web":"http://www.huilesessentiellescherchebrot.com/","txt":"artisan distillateur d'huiles essentielles et eau florales a Tiranges , lieu dit cherchebrot\ndistillation a la vapeur d'eau basse pression avec un procédé innovant ,plus respectueux des essences ,production de lavande fine sur place camomille ;distillation d'essences locales resineux angelique ,achillée millefeuille ,carotte sauvage ...","wiki":null,"tel":"0471561397","postCode":43530,"city":"Tiranges","addr":" lieu dit Cherchebrot","cat":"P","email":"cherchebrot.he@yahoo.fr"}
,{"lat":45.248454,"lng":4.069221,"name":"le mas de l'ane","web":"http://www.savonnerieduvelay.com/","txt":"Le Mas de l'Ane confectionne des savons bio au lait d'ânesse selon la méthode de  saponification à froid.","wiki":null,"tel":"0471619621","postCode":43590,"city":"Beauzac","addr":" Grand Champ","cat":"P","email":"nostrechamin@hotmail.fr"}
,{"lat":45.187065,"lng":3.886539,"name":"le chevrou","web":"","txt":"Jérôme, Hervé et Sandrine, vous accueillent à la ferme pour vous faire découvrir leurs produits au lait de chèvres.\nDu fromages en passant par la faisselle, les crèmes dessert, la tomme.... 100% lait de nos chèvres.","wiki":null,"tel":"0672206604","postCode":43800,"city":"Vorey","addr":" 32 route des Côtes ","cat":"AF","email":""}
]}