[
{"lat":49.607808,"lng":5.177395,"name":"le safran - l'or rouge des ardennes","web":"http://www.lesafran.fr","txt":"Culture et vente de safran en filaments, en poudre, et de produits dérivés de cette épice (miel, moutarde, vinaigre, nougat, chocolats, etc.). Je propose aussi à la vente des bulbes de crocus sativus. Vous pouvez retrouver tous ces produits sur ma boutique en ligne www.lesafran.fr ainsi que de nombreuses informations sur cette épice légendaire qui sublimera vos papilles j'en suis sure.","wiki":null,"tel":"0669419676","postCode":8110,"city":"Sailly","addr":" 7 LOTISSEMENT DE LA CHAPELLE ","cat":"A","email":"delphine@lesafran.fr"}
,{"lat":49.601754,"lng":5.066586,"name":"dupont christine","web":"","txt":"Je suis apicultrice à Mouzon. La production de miel est miel de fleurs et miel de printemps ,pain d'épices, bougies.","wiki":null,"tel":"0624718613","postCode":8210,"city":"Mouzon","addr":" 52 Faubourg Sainte Geneviève 0","cat":"A","email":""}
,{"lat":49.552885,"lng":5.031596,"name":"ferme de la harnoterie","web":"http://www.ferme-la-harnoterie.com","txt":"Monsieur et Madame Morin vous proposent des produits fermiers authentique et naturels : viande de porc et pièces de bœuf, formages et autres produits laitiers, charcuteries.\nLes animaux - vaches et porcs - sont nourris de céréales produites sur l'exploitation, en agriculture raisonnée.","wiki":null,"tel":"0324278368","postCode":8210,"city":"Beaumont-en-Argonne","addr":" Ferme de la Harnoterie ","cat":"A","email":"earldelaharnoterie@orange.fr"}
,{"lat":49.607286,"lng":5.130874,"name":"ferme charton - la-viande-est-dans-le-pre.fr","web":"http://www.la-viande-est-dans-le-pre.fr/","txt":"Notre élevage de broutards de races \"Highland\" et \"Charolaise\" est situé sur les hauteurs de\n\nVaux-Lès-Mouzon (08) dans les Ardennes françaises.\n\nNous proposons désormais à la vente des caissettes de viande bovine en direct de notre production pour le consommateur local.\n\nEn éliminant de nombreux intermédiaires, nous garantissons une viande de qualité exceptionnelle uniquement nourrie à base d'herbe et de fourrage de qualité.\n\nRetrouvez le détails de nos offres dans la rubrique \"Caissettes de viande\".","wiki":null,"tel":"0677837513","postCode":8210,"city":"Vaux-lès-Mouzon","addr":" Place du Temois ","cat":"A","email":"highland08@hotmail.com"}
,{"lat":49.290266,"lng":4.81913,"name":"ferme des lauriers","web":"","txt":"Éleveur de vaches Montbéliardes biologique\ntransformation à la ferme: Tomme à pâte dure et molle nature et aux herbes\nMédaille d'argent 2022","wiki":null,"tel":"0632312769","postCode":8250,"city":"Montcheutin","addr":" 16 avenue Georges Clémenceau 0","cat":"A","email":"nathalie.noel08@laposte.net"}
,{"lat":49.417199,"lng":4.276433,"name":"earl de breteuil","web":"","txt":"Monsieur et Madame Dupuy vous accueillent à la ferme pour vous présenter leur production, au cœur de la vallée de la Retourne : légumes et pommes de terre.","wiki":null,"tel":"0324727285","postCode":8300,"city":"Le Châtelet-sur-Retourne","addr":" 2 Rue Bailla ","cat":"A","email":"bcdupuit@club-internet.fr"}
,{"lat":49.54203,"lng":4.28796,"name":"françois jadot","web":"","txt":"L'exploitation agricole d'Ecly a pour activité l’horticulture maraîchère.","wiki":null,"tel":"0324728591","postCode":8300,"city":"Écly","addr":" 71 ruelle de l'Eglise ","cat":"A","email":""}
]