[
{"lat":43.862152,"lng":5.815942,"name":"les coteaux de valveranne","web":"","txt":"Producteur de pêches / abricot , pommes , huile d’olive \nEt élevage de volaille \nTout en bio et 100% local","wiki":null,"tel":"0787046999","postCode":4100,"city":"Manosque","addr":" Chemin de pimayon ","cat":"A","email":""}
,{"lat":43.935449,"lng":5.648462,"name":"catherine joly","web":"","txt":"Productrice de produits laitiers (lait de chèvre), céréales.","wiki":null,"tel":"0492756057","postCode":4110,"city":"Vachères","addr":" Les Clavelons ","cat":"A","email":""}
,{"lat":43.885551,"lng":5.6753,"name":"ferme de la buissière","web":"","txt":"La Ferme de la Buissière produit une grande variété de produits agricoles biologiques.","wiki":null,"tel":"0492733249","postCode":4110,"city":"Reillanne","addr":" La Buissière Chemin du Largue 0","cat":"A","email":""}
,{"lat":43.943577,"lng":5.678112,"name":"lure lubéron","web":"http://www.lureluberon.com/","txt":"L'exploitation agricole Lure Lubéron vend principalement des fruits et légumes.","wiki":null,"tel":"0492766119","postCode":4110,"city":"Aubenas-les-Alpes","addr":" Le Moulin Brun ","cat":"A","email":"info@lureluberon.com"}
,{"lat":43.837917,"lng":6.323953,"name":"verdon roses et arômes","web":"http://verdon-rosesetaromes.com/","txt":"Verdon Roses et Arômes commercialise des cosmétiques naturels (huiles essentielles, eux florales, huiles de soin) issus de l'agriculture biologique.","wiki":null,"tel":"0492726950","postCode":4120,"city":"La Palud-sur-Verdon","addr":" Les Chauvets ","cat":"A","email":"verdonrosesetaromes@hotmail.fr"}
,{"lat":44.260808,"lng":5.961379,"name":"pasta'durance","web":"http://www.pastadurance.fr","txt":"Fabrication de pâtes artisanales, locales et bio dans les Alpes du Sud. Utilisation de variétés anciennes de blé et de farines sans gluten.","wiki":null,"tel":"0670019083","postCode":4200,"city":"Valernes","addr":" Le village ","cat":"A","email":"pasta.durance@gmail.com"}
,{"lat":44.074603,"lng":5.945916,"name":"gaec les reines de provence","web":"","txt":"Apiculteur récoltent.miels en IGP Provence label rouge.miels de lavandes,fleurs de Provence, printemps, châtaignier, acacia, garrigues de provence.nous vendons aussi du pollen frais de fleurs sauvages et de la gelée royale.","wiki":null,"tel":"0610250701","postCode":4200,"city":"Châteauneuf-Val-Saint-Donat","addr":" La combe ","cat":"A","email":"johanjulien.api@gmail.com"}
,{"lat":44.192707,"lng":5.994564,"name":"le domaine d'aragon","web":"http://www.domainearagon.com/","txt":"Site Agri'culturel et ferme biologique, le Domaine d'Aragon vous accueille certains jours pour diverses activités sur un site exceptionnel au pied du massif des Monges et proche de Sisteron, dans les Alpes de Haute Provence. Rencontrez Marie, paysanne pasionnée qui partagera avec vous ses secrets sur les liens de la nature à la santé , vous présentera les animaux du Domaine; caresses et câlins assurés et vous fera déguster ses produits bio. Divers programmes selon les jours. Consulter le site www.domainearagon.com","wiki":null,"tel":"0492628035","postCode":4200,"city":"Entrepierres","addr":" L'Adrech ","cat":"A","email":"contact@domainearagon.com"}
,{"lat":44.165622,"lng":5.804507,"name":"le moulin de jarjayes","web":"http://safrandumoulindejarjayes.fr/","txt":"Productrice de safran, d'asperges, de fruits rouges et de confitures\nSafran en gramme et demi-gramme.\nIdée-cadeau safran et confiture.\nGelée de framboise, groseille, cassis et églantier (gratte-cul)\nConfiture de fraises.\nEn saison, asperges, fraises, framboises, groseilles","wiki":null,"tel":"0961671384","postCode":4200,"city":"Noyers-sur-Jabron","addr":" LE MOULIN DE JARJAYES ","cat":"A","email":"contact@safrandumoulindejarjayes.fr"}
,{"lat":44.168712,"lng":5.633284,"name":"michel favre","web":"","txt":"L'exploitation agricole de la Gardette produit des céréales, des fruits et légumes secs et propose des semences et plants à repiquer.","wiki":null,"tel":"0492620922","postCode":4200,"city":"Les Omergues","addr":" La Gardette ","cat":"A","email":""}
,{"lat":43.85759,"lng":5.589781,"name":"la rue des biscuits","web":"https://www.laruedesbiscuits.fr/","txt":"fabricant artisanal de biscuits, propose également une terrasse bar, avec des glaces et des boissons de producteurs locaux.","wiki":null,"tel":"0492710056","postCode":4280,"city":"Céreste","addr":" Lieu dit la gare (à coté de U Express) 04","cat":"A","email":"laruedesbiscuits@orange.fr"}
,{"lat":43.9104,"lng":5.792413,"name":"la ferme de la bertine","web":"http://www.fermedelabertine.fr/","txt":"La Ferme de la Bertine est une petite exploitation familiale très diversifiée en Agriculture Biologique.","wiki":null,"tel":"0492795078","postCode":4300,"city":"Saint-Maime","addr":" La Bertine ","cat":"A","email":"fermedelabertine@wanadoo.fr"}
,{"lat":43.837875,"lng":6.219563,"name":"ferme des fabrigoules","web":"http://www.fermedesfabrigoules.com","txt":"Production Bio de fromages et produits laitiers de chèvres, légumes d'été de plein champs","wiki":null,"tel":"","postCode":4360,"city":"Moustiers-Sainte-Marie","addr":" route de la Palud, Les Fabrigoules ","cat":"A","email":""}
,{"lat":43.857396,"lng":6.120997,"name":"le jardin de saint blaise","web":"","txt":"Cultivateur de chanvre ancestral aux milles vertus et usages, arbre des possibles par excellence.\nHuiles cbd, huiles de ma-sage, de jouvence pour la peau, alimentaire, essentielles, fleurs de chanvres sans graines.. textiles en fibres de chanvre .\n\nContributeur et distributeur a la coopérative canebounes.fr\nnous distribuons aussi une partie des produits du site terredechanvre.com\n\n« Je ne dis pas que le chanvre sauvera le monde... mais en tout cas, c'est la seule chose qui puisse le faire... ».\nJack Herer s'est présenté deux fois, en 1988 et 1992, à la présidence des États-Unis sous l'étiquette du Grassroots Party.","wiki":null,"tel":"0610666448","postCode":4410,"city":"Puimoisson","addr":" Route de Riez ","cat":"A","email":""}
,{"lat":43.972877,"lng":5.864543,"name":"huile d'olive la maréchale","web":"https://lamarechale.fr","txt":"Huile d'olive de Lurs dans les Alpes de Haute-Provence. Direct producteur. Fruité vert AOP Haute-Provence et fruité noir.","wiki":null,"tel":"0626523495","postCode":4700,"city":"Lurs","addr":" Campagne la Maréchale 0","cat":"A","email":"huiledolivelamarechale@gmail.com"}
,{"lat":43.93775,"lng":5.883613,"name":"la bouillote","web":"http://www.vacances-provence-ecogite.fr","txt":"Production de légumes variés, herbes aromatiques (Basilic, persil, coriandre), huiles d'olives et confitures de fraises. Plants à repiquer.","wiki":null,"tel":"0665120704","postCode":4700,"city":"La Brillanne","addr":" Chemin de Pissaïs 0","cat":"A","email":"phil.girard3@wanadoo.fr"}
]