[
{"lat":48.579744,"lng":5.67357,"name":"flore miel","web":"","txt":"Elevage d'abeilles et production de miel. Vente de miel et miel aux plantes médicinales","wiki":null,"tel":"0672024881","postCode":55140,"city":"Neuville-lès-Vaucouleurs","addr":" 4 grande rue","cat":"A","email":"natacha.aveaux@aol.fr"}
,{"lat":48.630701,"lng":5.073633,"name":"les vergers de cousancelles","web":"http://lesvergersdecousancelles.e-monsite.com/","txt":"Les Vergers de Cousancelles produisent des fruits et confectionnent diverses boissons et produits dérivés.","wiki":null,"tel":"0329708071","postCode":55170,"city":"Cousances-les-Forges","addr":" n°2 les Tuileries ","cat":"A","email":""}
,{"lat":48.782317,"lng":5.493827,"name":"scea la revanche","web":"","txt":"Vente de pigeons vivant\nPigeonneaux mort \nFilets de pigeons\nTerrine 100% pigeons\nRillettes 100%pigeons\nAbats sur commande","wiki":null,"tel":"0612257540","postCode":55200,"city":"Chonville-Malaumont","addr":" 7 rue de mare","cat":"A","email":"scealarevanche@yahoo.com"}
,{"lat":48.976784,"lng":5.227564,"name":"ei latifundia aromatica","web":"","txt":"Production agricole de plantes à parfums aromatiques et médicinales en Agriculture Biologique. Production de Tisanes huiles essentielles et Chanvre CBD.","wiki":null,"tel":"0645422657","postCode":55250,"city":"Beausite","addr":" 15 rue du château ","cat":"A","email":""}
,{"lat":48.863302,"lng":5.536544,"name":"earl aux jardins de candyce","web":"","txt":"Horticulteur maraîcher situé sur la commune de Han sur Meuse (55).\nProduction de plantes pour le printemps et l'automne, de fraises, melons, tomates et beaucoup d'autres légumes de saison.","wiki":null,"tel":"0677789192","postCode":55300,"city":"Han-sur-Meuse","addr":" Les serres","cat":"A","email":"s.bertaux@auxjardinsdecandyce.fr"}
,{"lat":49.235076,"lng":5.604295,"name":"permabees","web":"https://www.permabees.fr","txt":"Apiculture douce, respectueuse de la vie des abeilles\nVente de Miel sur place ou en ligne","wiki":null,"tel":"0601935789","postCode":55400,"city":"Foameix-Ornel","addr":" 6 rue de la rigole","cat":"A","email":"contact@permabees.fr"}
,{"lat":49.16712,"lng":5.506076,"name":"ferme moinaux","web":"","txt":"Producteur - transformateur - commercant \nDe produits de la ferme \n\n( Lait - Crème - lait aromatisées- viande etc ... )","wiki":null,"tel":"0769977903","postCode":55400,"city":"Moulainville","addr":" Ferme de la basseville","cat":"A","email":""}
,{"lat":48.685084,"lng":5.44669,"name":"gaec de l'aviot","web":"https://www.du-producteur-au-consommateur.eu","txt":"Bonjour,\nNous vous proposons de la vente directe à la ferme de viande issue \nde notre élevage limousin en agriculture raisonnée à SAULVAUX 55500.\nSur réservations uniquement par téléphone/sms ou sur le site internet, nous ne possédons pas de magasin ni de stock en frais.\nLes colis sont à partir de 12€ / kg.\nUn colis découverte est disponible en 5,5 kg. \nDes colis tradition et équilibre sont disponibles en 10 kg, \nUn colis composé est à définir selon vos préférences ou envies entre ses \ncomposants ( Viande hachée salée formée, Merguez pur bœuf, Saucisses à grillées pur bœuf, Saucisses blanches).\nToutes les infos en détails sur :\n www.du-producteur-au-consommateur.eu","wiki":null,"tel":"0688925162","postCode":55500,"city":"Saulvaux","addr":" RN4","cat":"A","email":"lainber55@gmail.com"}
]