[
{"lat":47.222355,"lng":5.252222,"name":"le rucher de l'ours brun","web":"https://rucherdeloursbrun.fr","txt":"Artisan apiculteur, je produis des miels de saison et monofloraux (acacia, tilleul, tournesol, etc.).\nJe pratique une apiculture naturelle et responsable de l'environnement. La pureté et la qualité de mes miels sont confirmés par des analyses réalisés par un laboratoire certifié.","wiki":null,"tel":"0380377653","postCode":21110,"city":"Longeault-Pluvault","addr":" rue de Gondevin 21110 Longeault ","cat":"A","email":"apiculteur@rucherdeloursbrun.fr"}
,{"lat":47.167013,"lng":5.138317,"name":"rucher du jardin de l'iramanha","web":"","txt":"Apiculteur amateur récoltant je propose des miels locaux de qualité.\nJe pratique une apiculture raisonnée très respectueuse des abeilles et de la biodiversité.","wiki":null,"tel":"0676643328","postCode":21110,"city":"Izeure","addr":" 9 rue de Bessey","cat":"A","email":"claudine.prost@gmail.com"}
,{"lat":47.185309,"lng":5.243145,"name":"gaec du pré couvent","web":"","txt":"Ces producteurs élèvent aussi bien des vaches laitières pour le lait que des chevaux de traits pour la viande. Il est aussi possible de visiter la ferme en groupe.","wiki":null,"tel":"0678860065","postCode":21110,"city":"Tart","addr":" 4 rue des Bernadines 21110 Ta","cat":"A","email":"magali.joliet@yahoo.fr"}
,{"lat":47.525234,"lng":4.2932,"name":"pascale allaguillaume","web":"https://www.maraichageauxois.fr","txt":"Maraîchère en bio. Cultures en serres et en plein champ. Légumes d'été et d'hiver. Vente en paniers ou au détail, directe, via le comptoir de l'AMAP Montbard ou les locavors Semur-en-Auxois, Darcey, Fain-les-Montbard.","wiki":null,"tel":"0380920423","postCode":21140,"city":"Genay","addr":" 2 rue du 3 août 44 ","cat":"A","email":""}
,{"lat":47.430509,"lng":4.423793,"name":"earl ferry michel","web":"","txt":"Vente de viande bovine charolaise, née et élevée au coeur de l'AUXOIS.","wiki":null,"tel":"0671903749","postCode":21140,"city":"Charigny","addr":" 1 VOIE DE PERREE","cat":"A","email":"valerie.ferry72@outlook.fr"}
,{"lat":47.461503,"lng":4.46159,"name":"aux herbes!","web":"http://auxherbes.fr/","txt":"Production et transformation de plantes aromatiques et médicinales en Côte d'Or","wiki":null,"tel":"0647147148","postCode":21150,"city":"Marigny-le-Cahouët","addr":" 22 RUE DU CHâTEAU ","cat":"A","email":"contact@auxherbes.fr"}
,{"lat":46.991089,"lng":4.769664,"name":"domaine eric de suremain","web":"http://www.domaine-eric-de-suremain.com/","txt":"Depuis 1996 ces agriculteurs ont décidé de cultiver leurs vignes avec les méthodes de l'agriculture biologique. Il en ressort de beaux produits comme le Rully 1er Cru blanc et rouge, le Monthelie et le Monthelie 1er Cru (rouges), le ratafia ou encore le Marc de Bourgogne. A noter que de ce domaine ce sont les poules qui traquent les larves au sein même des vignes.","wiki":null,"tel":"0380212332","postCode":21190,"city":"Monthelie","addr":" Château de Monthelie ","cat":"A","email":"desuremain@wanadoo.fr"}
,{"lat":47.240154,"lng":4.971174,"name":"domaine isabelle lippe","web":"","txt":"Le domaine viticole familiale Isabelle Lippe commercialise ses vins en direct. Situé sur la route touristique des Grands crus, le baladeur amateur de bon vin peut, ici, s'offrir une halte gourmande. Il sera bien accueilli et c'est avec plaisir que les mystères des vins bourguignons lui seront révélés. Le caveau de dégustation est ouvert tous les jours de 10 h à 18 h 30. Les appellations proposées tournent autour du Marsannay, du Côte de Nuits Village et bien sûr du Gevrey-Chambertin.","wiki":null,"tel":"0632458157","postCode":21220,"city":"Brochon","addr":" 1 rue de Fontenotte","cat":"A","email":""}
,{"lat":47.227119,"lng":4.980406,"name":"domaine rossignol - trapet","web":"http://www.rossignol-trapet.com","txt":"C'est la réunion de deux familles de vignerons qui ont donné le nom à ce domaine en 1990. Ces producteurs ont la volonté d'intégrer la notion de terroir à leur vin, en utilisant le plus respectueusement leur environnement (minéral, faune et végétal). La richesse de ces vins rouge provient aussi du résultat d'une agriculture biologique.","wiki":null,"tel":"0380518726","postCode":21220,"city":"Gevrey-Chambertin","addr":" 4 rue de la Petite Issue","cat":"A","email":"info@rossignol-trapet.com"}
,{"lat":47.937303,"lng":4.358855,"name":"domaine bruno dangin","web":"http://www.bruno-dangin.com","txt":"Ce domaine  respectueux de l'environnement est le fruit d'une agriculture biologique où sont cultivées des vignes sur une terre argilo-calcaire. On retrouve ainsi des saveurs gourmandes dans leur crémant Blanc (brut 100% pinot noir) et  leur crémant rosé (brut 100% pinot noir).","wiki":null,"tel":"0688871979","postCode":21330,"city":"Molesme","addr":" Route des Mézières 2","cat":"A","email":"bruno-dangin@live.fr"}
,{"lat":47.32452,"lng":4.448781,"name":"domaine aurélien febvre","web":"http://www.domaine-aurelien-febvre.fr/","txt":"Cet œnologue a repris l'affaire familiale en 2002 pour s'adonner à la culture de la vigne. Par respect pour l'environnement, le sol, le terroir  et la santé des clients, il a souhaité élaborer ses produits via une agriculture biologique tout en vinifiant le plus naturellement possible. Vous pourrez retrouver ses deux cuvées de Chardonnay vieillies en fûts de chêne sur place.","wiki":null,"tel":"0380646512","postCode":21350,"city":"Thorey-sous-Charny","addr":" 21 rue Avau","cat":"A","email":"contac@domaine-aurelien-febvre.fr"}
,{"lat":47.061795,"lng":4.695281,"name":"ferme des levées","web":"","txt":"C'est une ferme qui bichonne ses 150 cochons élevés en plein air dans un grand parc aménagé. Cet agriculteur a choisi d'élever ses animaux avec les méthodes de l'agriculture biologique, car le bien-être de l'animal est pour lui une priorité. Grâce à ces méthodes de production vous pourrez retrouver de la viande et de la charcuterie de qualité.","wiki":null,"tel":"0380201816","postCode":21360,"city":"Lusigny-sur-Ouche","addr":" Les Levées ","cat":"A","email":"ajvolatier@gmail.com"}
,{"lat":47.890953,"lng":4.524418,"name":"la ferme du mont lassois","web":"","txt":"Ces deux jeunes agriculteurs installés depuis 2011 mettent tout en oeuvre pour soigner l'alimentation de leurs animaux. Ainsi ils obtiennent une matière première de qualité pour la transformer en faisselles fermières, formages blancs fermiers, fromages apéritifs ainsi qu'en yaourts fermiers.","wiki":null,"tel":"0380911164","postCode":21400,"city":"Étrochey","addr":" 8, Rue de L'Orme","cat":"A","email":"mangeons-bien@lafermedumontlassois.com"}
,{"lat":47.519394,"lng":4.731685,"name":"l'escargot burgonde","web":"http://escargot- burgonde.com/","txt":"Elevage d'escargots fermiers à 6 km des sources de la SEINE. Nos escargots sont élevés en pleine nature riche en biodiversité , ils s'épanouissent au grand air favorisant leur bien -être et leur développement, TENDRES ET SAVOUREUX ils sont ^réparés et cuisinés dans notre laboratoire. Les courts bouillons et les préparations culinaires sont élaborés avec des produits frais.","wiki":null,"tel":"0603457490","postCode":21440,"city":"Chanceaux","addr":" LES CHENEVIERES","cat":"A","email":"jean.livera@orange.fr"}
,{"lat":47.621085,"lng":4.368789,"name":"jardin'escar","web":"","txt":"Cet élevage familial élève des escargots qui vivent en liberté dans des parcs de verdure. Ils sont ensuite transformés directement dans leur laboratoire en feuilletés, plats cuisinés mais aussi en cosmétiques naturels. Les producteurs proposent aussi des confitures et légumes de saison qui proviennent de leur verger et potager.","wiki":null,"tel":"0380923406","postCode":21500,"city":"Marmagne","addr":" 18, route de Dijon","cat":"A","email":"jardinescar@orange.fr"}
,{"lat":47.063566,"lng":4.902041,"name":"ferme de neuvelle","web":"https://ferme.neuvelle.fr/","txt":"Vente de légumes BIO à la ferme.\nMarilyn met en ligne sur le site ferme de Neuvelle les jours d'ouverture ainsi que les horaires et la disponibilité de la production.","wiki":null,"tel":"","postCode":21550,"city":"Ladoix-Serrigny","addr":" Rue des Rossignols","cat":"A","email":""}
,{"lat":46.909557,"lng":4.69678,"name":"le verger des familles","web":"http://www.vergerdesfamilles.fr/","txt":"Ce producteur de pommes et de poires a choisi lui aussi une agriculture biologique. Il vend ainsi ses produits bio à la boutique de la ferme : pommes, poires, vinaigre de cidre, jus de pomme, et cidre sont au rendez-vous !","wiki":null,"tel":"0628327334","postCode":21590,"city":"Santenay","addr":" 59 rue Chauchien","cat":"A","email":"vergerdesfamilles@gmail.com"}
,{"lat":47.578369,"lng":5.398005,"name":"le clos thomas","web":"http://www.clos-thomas.fr/","txt":"C'est plus d'une centaine de chèvres qui sont élevés sur le principe d'une agriculture raisonnée. Ces producteurs transforment le lait des chèvres en une douzaine de sortes de fromages, et proposent également à la vente de la viande de chevreau.","wiki":null,"tel":"0380759324","postCode":21610,"city":"Saint-Maurice-sur-Vingeanne","addr":" 5 route de Fontaine-Française ","cat":"A","email":"jc.monget@wanadoo.fr"}
,{"lat":47.004011,"lng":5.099279,"name":"le petit horticulteur","web":"http://www.lepetithorticulteur.fr","txt":"Maraîcher, Horticulteur, épicerie,\nlégumes de saison, production en bio","wiki":null,"tel":"0769021758","postCode":21820,"city":"Labergement-lès-Seurre","addr":" 22b route de Beaune","cat":"A","email":"Lepetithorticulteur@outlook.com"}
]