[
{"lat":44.187478,"lng":0.628655,"name":"savonnerie lou karitan","web":"https://loukaritan.fr/","txt":"Savonnerie artisanale de fabrication de savons par saponification à froid et de cosmétiques naturels...","wiki":null,"tel":"0553680568","postCode":47000,"city":"Agen","addr":" 523, rue du Docteur et Madame Delmas","cat":"A","email":"loukaritan@gmail.com"}
,{"lat":44.731545,"lng":0.274414,"name":"tingaud vins et villégiature","web":"","txt":"Tingaud Vins et Villégiature confectionne boissons, vins et spiritueux.","wiki":null,"tel":"0688183679","postCode":47120,"city":"Saint-Astier","addr":" Les Guignards","cat":"A","email":""}
,{"lat":44.254218,"lng":0.401596,"name":"if champignons d'aquitaine","web":"","txt":"producteurs de champignons pleurotes et shiitake,\ninstallés à Port Sainte Marie depuis mars 2021\nvisite sympathique de l'exploitation et ventes directes à la ferme possible","wiki":null,"tel":"0649706790","postCode":47130,"city":"Port-Sainte-Marie","addr":" domaine du Blazy","cat":"A","email":"tristan.ifchampignons@gmail.com"}
,{"lat":44.385598,"lng":0.830927,"name":"clémence,herbes et sens...","web":"http://clemenceherbesetsens.jimdo.fr","txt":"PRODUCTRICE DE PLANTES AROMATIQUES ET MEDICINALES\ndivers produits transformés : tisanes; hydrolat, sels aromatisés, aromes naturels...","wiki":null,"tel":"","postCode":47140,"city":"Penne-d'Agenais","addr":" PIED BAS","cat":"A","email":""}
,{"lat":44.397631,"lng":0.834092,"name":"locatelli","web":"","txt":"Producteur de viandes (bœuf et veau) et cultivateur de pruneaux.","wiki":null,"tel":"0553417954","postCode":47140,"city":"Penne-d'Agenais","addr":" Perdigou","cat":"A","email":""}
,{"lat":44.355939,"lng":0.832735,"name":"l'athanor","web":"http://www.lafermedubequi.com/","txt":"L'Athanor produit des pruneaux et dérivés, de l'huile alimentaire (tournesol et carthame), des pois chiches, lentilles et farine de blé.","wiki":null,"tel":"0553414557","postCode":47140,"city":"Penne-d'Agenais","addr":" Le Béqui ","cat":"A","email":""}
,{"lat":44.532457,"lng":0.767853,"name":"savonnerie saponaire","web":"https://www.savonnerie-saponaire.com/","txt":"Savonnerie Saponaire, savons artisanaux, cosmétique et article d'hygiène sous mention Nature & Progrès savons en saponification à froid aux ingrédients biologiques sans aucun additif chimique ou de synthèse comme toute notre gamme.","wiki":null,"tel":"0553364615","postCode":47150,"city":"Monflanquin","addr":" 47, Place des Arcade","cat":"A","email":"correspondance@savonnerie-saponaire.com"}
,{"lat":44.553161,"lng":0.88057,"name":"rucher de la tour","web":"","txt":"MIEL PROPOLIS PRODUITS DE LA RUCHE \nNOIX\nVENTE SUR PLACE TOUS LES JOURS DE 9H A 18 H\nTEL AVANT DE VOUS DEPLACEZ TEL 0553408177","wiki":null,"tel":"0553408177","postCode":47150,"city":"Salles","addr":" TERRE ROUGE","cat":"A","email":"lechaletgourmand0468@orange.fr"}
,{"lat":44.302941,"lng":0.347856,"name":"la ferme des aigrettes","web":"https://www.facebook.com/ferme.des.aigrettes.aiguillon","txt":"Nous vendons au détail les produits de notre ferme, des légumes biologiques, toute l'année.","wiki":null,"tel":"0623252130","postCode":47190,"city":"Aiguillon","addr":" 8 rue d'Argenteau","cat":"A","email":"ferme.des.aigrettes@gmail.com"}
,{"lat":44.566539,"lng":0.624693,"name":"earl de marouty","web":"https://www.facebook.com/pages/category/Farm/Ferme-de-Jean-Marouty-1785521935024480/","txt":"Eleveur de vaches Highlands Cattle Bio à Cancon\nPruniculteur et éleveur d'agneaux\nVente de viande de Boeuf, pruneaux et agneaux","wiki":null,"tel":"0678718337","postCode":47290,"city":"Cancon","addr":" Jean Marouty","cat":"A","email":"earldemarouty@outlook.fr"}
,{"lat":44.35558,"lng":0.438089,"name":"maison du pruneau","web":"http://www.maisondupruneau.com","txt":"Producteur de pruneaux depuis 4 générations,nous transformons notre prune en pruneaux vente à la ferme ou par correspondance Venez déguster nos pruneaux\nLa gourmandise Agenaise Pruneaux fourrés à la crème de pruneaux\nPrunchoco Pruneaux enrobés de chocolat\ncrème de pruneaux pulpe de pruneaux sans sucre rajouté","wiki":null,"tel":"0553840417","postCode":47320,"city":"Lafitte-sur-Lot","addr":" braunes","cat":"A","email":"maison.du.pruneau@wanadoo.fr"}
,{"lat":44.654425,"lng":0.603334,"name":"savonnerie soleil de mai","web":"https://www.soleil-de-mai.fr","txt":"Fabrication artisanale par saponification à froid de savons surgras sous mention Nature & Progrès. \nFabrication artisanale de bougies végétales et de parfums d intérieur à base d ingrédients 100% naturels et bio.\nRéalisation d ateliers cosmétiques.","wiki":null,"tel":"0610630407","postCode":47330,"city":"Castillonnès","addr":" Grillon","cat":"A","email":""}
,{"lat":44.535803,"lng":0.293641,"name":"artis'âne","web":"http://en cours","txt":"élevage éthologique d'ânesses laitières; Certifié en agriculture biologique par AgroCert.\nProduction et vente de lait d'ânesse frais.\ntransformation: savonnerie et cosmétiques. \nsaponification artisanale à froid. produits bio et bio dégradables","wiki":null,"tel":"0553646101","postCode":47350,"city":"Seyches","addr":" Ld: le Bois des nauzes 47350 - Seyches","cat":"A","email":"artis-ane@orange.fr"}
,{"lat":44.37295,"lng":0.504641,"name":"soleil levain","web":"https://www.painsoleillevain.fr","txt":"Pain au levain de blés anciens, petit épeautre, seigle, maïs, sans gluten. Certification Nature&Progrès.","wiki":null,"tel":"0750221743","postCode":47360,"city":"Montpezat","addr":" Le Grand Mouligné ","cat":"A","email":"contact@painsoleillevain.fr"}
,{"lat":44.437336,"lng":0.570756,"name":"le verger du limousy","web":"","txt":"Le Verger du Limousy fabrique du jus de pommes et crèmes de pruneaux.","wiki":null,"tel":"0553012266","postCode":47380,"city":"Pinel-Hauterive","addr":" Limousy","cat":"A","email":""}
,{"lat":44.469642,"lng":0.327755,"name":"légumes bio petit mayne","web":"http://legumes-bio.eklablog.com/","txt":"légumes bio de saison en petites quanttiés\n\npommes de terre rouges, salades,artichauts,topinambours...\n\nà Gontaud 47400\n\nappelez avant de venir merci","wiki":null,"tel":"0553833660","postCode":47400,"city":"Gontaud-de-Nogaret","addr":" le petit mayne","cat":"A","email":"cuisery.petit@laposte.net"}
,{"lat":44.660066,"lng":0.495749,"name":"pure aquitaine","web":"https://pureaquitaine.fr","txt":"Savonnerie artisanale : savons solides, savons liquides, savons ménagers, parfums d'intérieur. Des produits bio, certifiés Nouvellecosmetique.org","wiki":null,"tel":"0524301055","postCode":47410,"city":"Lauzun","addr":" 1970 route de Queyssel","cat":"A","email":"contact@pureaquitaine.fr"}
,{"lat":44.266163,"lng":0.863598,"name":"côteaux nature","web":"http://panierbio47.fr/","txt":"Production de légumes certifiée en bio, vente de paniers composés de légumes de saison.","wiki":null,"tel":"0553963659","postCode":47470,"city":"Beauville","addr":" Las Condios","cat":"A","email":"coteaux.nature@yahoo.fr"}
,{"lat":44.05487,"lng":0.325431,"name":"les fromages de marie","web":"http://www.lesfromagesdemarie.fr","txt":"Fromages de Chèvre Bio au lait cru.\nEleveur / Fromager Artisant (voire artiste).","wiki":null,"tel":"","postCode":47600,"city":"Moncrabeau","addr":" Le petit couloumé ","cat":"A","email":"lesfromagesdemarie@gmail.com"}
,{"lat":44.656091,"lng":0.350246,"name":"domaine clos de l'ange","web":"https://www.closdelange.fr","txt":"Petit domaine situé sur La Sauvetat du dropt. Le vignoble de 4,5 ha de vignes produis des vins en AOC Côtes de Duras. (vin rouge, blanc sec et moelleux ainsi qu'un rosé sec).\nLe magasin du domaine est ouvert du lundi au vendredi de 15H à 18H et le samedi sur RDV.","wiki":null,"tel":"0643427251","postCode":47800,"city":"La Sauvetat-du-Dropt","addr":" 202 route du lac","cat":"A","email":"contact.closdelange@gmail.com"}
]